[{"id":67,"ident":"AYPY","type":"large_airport","name":"Port Moresby Jacksons International Airport","latitude_deg":-9.4433803558,"longitude_deg":147.2200012207,"elevation_ft":146.0,"continent":"OC","iso_country":"PG","iso_region":"PG-NCD","municipality":"Port Moresby","gps_code":"AYPY","iata_code":"POM","location":{"type":"Point","coordinates":[147.2200012207,-9.4433803558]}},{"id":123,"ident":"BIKF","type":"large_airport","name":"Keflavik International Airport","latitude_deg":63.9850006104,"longitude_deg":-22.6056003571,"elevation_ft":171.0,"continent":"EU","iso_country":"IS","iso_region":"IS-2","municipality":"Reykjav\u00edk","gps_code":"BIKF","iata_code":"KEF","location":{"type":"Point","coordinates":[-22.6056003571,63.9850006104]}},{"id":4614,"ident":"BKPR","type":"large_airport","name":"Pri\u0161tina International Airport","latitude_deg":42.5728,"longitude_deg":21.035801,"elevation_ft":1789.0,"continent":"EU","iso_country":"XK","iso_region":"XK-01","municipality":"Prishtina","gps_code":"BKPR","iata_code":"PRN","location":{"type":"Point","coordinates":[21.035801,42.5728]}},{"id":1717,"ident":"CYEG","type":"large_airport","name":"Edmonton International Airport","latitude_deg":53.3097000122,"longitude_deg":-113.580001831,"elevation_ft":2373.0,"continent":null,"iso_country":"CA","iso_region":"CA-AB","municipality":"Edmonton","gps_code":"CYEG","iata_code":"YEG","location":{"type":"Point","coordinates":[-113.580001831,53.3097000122]}},{"id":1770,"ident":"CYHZ","type":"large_airport","name":"Halifax \/ Stanfield International Airport","latitude_deg":44.8807983398,"longitude_deg":-63.5085983276,"elevation_ft":477.0,"continent":null,"iso_country":"CA","iso_region":"CA-NS","municipality":"Halifax","gps_code":"CYHZ","iata_code":"YHZ","location":{"type":"Point","coordinates":[-63.5085983276,44.8807983398]}},{"id":1840,"ident":"CYOW","type":"large_airport","name":"Ottawa Macdonald-Cartier International Airport","latitude_deg":45.3224983215,"longitude_deg":-75.6691970825,"elevation_ft":374.0,"continent":null,"iso_country":"CA","iso_region":"CA-ON","municipality":"Ottawa","gps_code":"CYOW","iata_code":"YOW","location":{"type":"Point","coordinates":[-75.6691970825,45.3224983215]}},{"id":1928,"ident":"CYUL","type":"large_airport","name":"Montreal \/ Pierre Elliott Trudeau International Airport","latitude_deg":45.4706001282,"longitude_deg":-73.7407989502,"elevation_ft":118.0,"continent":null,"iso_country":"CA","iso_region":"CA-QC","municipality":"Montr\u00e9al","gps_code":"CYUL","iata_code":"YUL","location":{"type":"Point","coordinates":[-73.7407989502,45.4706001282]}},{"id":1941,"ident":"CYVR","type":"large_airport","name":"Vancouver International Airport","latitude_deg":49.193901062,"longitude_deg":-123.183998108,"elevation_ft":14.0,"continent":null,"iso_country":"CA","iso_region":"CA-BC","municipality":"Vancouver","gps_code":"CYVR","iata_code":"YVR","location":{"type":"Point","coordinates":[-123.183998108,49.193901062]}},{"id":1946,"ident":"CYWG","type":"large_airport","name":"Winnipeg \/ James Armstrong Richardson International Airport","latitude_deg":49.9099998474,"longitude_deg":-97.2398986816,"elevation_ft":783.0,"continent":null,"iso_country":"CA","iso_region":"CA-MB","municipality":"Winnipeg","gps_code":"CYWG","iata_code":"YWG","location":{"type":"Point","coordinates":[-97.2398986816,49.9099998474]}},{"id":1973,"ident":"CYYC","type":"large_airport","name":"Calgary International Airport","latitude_deg":51.113899231,"longitude_deg":-114.019996643,"elevation_ft":3557.0,"continent":null,"iso_country":"CA","iso_region":"CA-AB","municipality":"Calgary","gps_code":"CYYC","iata_code":"YYC","location":{"type":"Point","coordinates":[-114.019996643,51.113899231]}},{"id":1979,"ident":"CYYJ","type":"large_airport","name":"Victoria International Airport","latitude_deg":48.646900177,"longitude_deg":-123.426002502,"elevation_ft":63.0,"continent":null,"iso_country":"CA","iso_region":"CA-BC","municipality":"Victoria","gps_code":"CYYJ","iata_code":"YYJ","location":{"type":"Point","coordinates":[-123.426002502,48.646900177]}},{"id":1986,"ident":"CYYT","type":"large_airport","name":"St. John's International Airport","latitude_deg":47.618598938,"longitude_deg":-52.7518997192,"elevation_ft":461.0,"continent":null,"iso_country":"CA","iso_region":"CA-NL","municipality":"St. John's","gps_code":"CYYT","iata_code":"YYT","location":{"type":"Point","coordinates":[-52.7518997192,47.618598938]}},{"id":1990,"ident":"CYYZ","type":"large_airport","name":"Lester B. Pearson International Airport","latitude_deg":43.6772003174,"longitude_deg":-79.6305999756,"elevation_ft":569.0,"continent":null,"iso_country":"CA","iso_region":"CA-ON","municipality":"Toronto","gps_code":"CYYZ","iata_code":"YYZ","location":{"type":"Point","coordinates":[-79.6305999756,43.6772003174]}},{"id":2050,"ident":"DAAG","type":"large_airport","name":"Houari Boumediene Airport","latitude_deg":36.6910018921,"longitude_deg":3.2154099941,"elevation_ft":82.0,"continent":"AF","iso_country":"DZ","iso_region":"DZ-35","municipality":"Algiers","gps_code":"DAAG","iata_code":"ALG","location":{"type":"Point","coordinates":[3.2154099941,36.6910018921]}},{"id":2088,"ident":"DFFD","type":"large_airport","name":"Ouagadougou Airport","latitude_deg":12.3532,"longitude_deg":-1.51242,"elevation_ft":1037.0,"continent":"AF","iso_country":"BF","iso_region":"BF-KAD","municipality":"Ouagadougou","gps_code":"DFFD","iata_code":"OUA","location":{"type":"Point","coordinates":[-1.51242,12.3532]}},{"id":2090,"ident":"DGAA","type":"large_airport","name":"Kotoka International Airport","latitude_deg":5.6051898003,"longitude_deg":-0.1667860001,"elevation_ft":205.0,"continent":"AF","iso_country":"GH","iso_region":"GH-AA","municipality":"Accra","gps_code":"DGAA","iata_code":"ACC","location":{"type":"Point","coordinates":[-0.1667860001,5.6051898003]}},{"id":2104,"ident":"DNAA","type":"large_airport","name":"Nnamdi Azikiwe International Airport","latitude_deg":9.0067901611,"longitude_deg":7.2631697655,"elevation_ft":1123.0,"continent":"AF","iso_country":"NG","iso_region":"NG-FC","municipality":"Abuja","gps_code":"DNAA","iata_code":"ABV","location":{"type":"Point","coordinates":[7.2631697655,9.0067901611]}},{"id":309668,"ident":"DNAI","type":"large_airport","name":"Akwa Ibom International Airport","latitude_deg":4.8725,"longitude_deg":8.093,"elevation_ft":170.0,"continent":"AF","iso_country":"NG","iso_region":"NG-AK","municipality":"Uyo","gps_code":"DNAI","iata_code":"QUO","location":{"type":"Point","coordinates":[8.093,4.8725]}},{"id":2115,"ident":"DNKN","type":"large_airport","name":"Mallam Aminu International Airport","latitude_deg":12.0476,"longitude_deg":8.52462,"elevation_ft":1562.0,"continent":"AF","iso_country":"NG","iso_region":"NG-KN","municipality":"Kano","gps_code":"DNKN","iata_code":"KAN","location":{"type":"Point","coordinates":[8.52462,12.0476]}},{"id":2118,"ident":"DNMM","type":"large_airport","name":"Murtala Muhammed International Airport","latitude_deg":6.5773701668,"longitude_deg":3.321160078,"elevation_ft":135.0,"continent":"AF","iso_country":"NG","iso_region":"NG-LA","municipality":"Lagos","gps_code":"DNMM","iata_code":"LOS","location":{"type":"Point","coordinates":[3.321160078,6.5773701668]}},{"id":2125,"ident":"DRRN","type":"large_airport","name":"Diori Hamani International Airport","latitude_deg":13.4815,"longitude_deg":2.18361,"elevation_ft":732.0,"continent":"AF","iso_country":"NE","iso_region":"NE-8","municipality":"Niamey","gps_code":"DRRN","iata_code":"NIM","location":{"type":"Point","coordinates":[2.18361,13.4815]}},{"id":2133,"ident":"DTTA","type":"large_airport","name":"Tunis Carthage International Airport","latitude_deg":36.8510017395,"longitude_deg":10.2271995544,"elevation_ft":22.0,"continent":"AF","iso_country":"TN","iso_region":"TN-11","municipality":"Tunis","gps_code":"DTTA","iata_code":"TUN","location":{"type":"Point","coordinates":[10.2271995544,36.8510017395]}},{"id":2155,"ident":"EBBR","type":"large_airport","name":"Brussels Airport","latitude_deg":50.9014015198,"longitude_deg":4.4844398499,"elevation_ft":184.0,"continent":"EU","iso_country":"BE","iso_region":"BE-BRU","municipality":"Brussels","gps_code":"EBBR","iata_code":"BRU","location":{"type":"Point","coordinates":[4.4844398499,50.9014015198]}},{"id":2157,"ident":"EBCI","type":"large_airport","name":"Brussels South Charleroi Airport","latitude_deg":50.459202,"longitude_deg":4.45382,"elevation_ft":614.0,"continent":"EU","iso_country":"BE","iso_region":"BE-WHT","municipality":"Brussels","gps_code":"EBCI","iata_code":"CRL","location":{"type":"Point","coordinates":[4.45382,50.459202]}},{"id":2162,"ident":"EBLG","type":"large_airport","name":"Li\u00e8ge Airport","latitude_deg":50.6374015808,"longitude_deg":5.4432201385,"elevation_ft":659.0,"continent":"EU","iso_country":"BE","iso_region":"BE-WLG","municipality":"Li\u00e8ge","gps_code":"EBLG","iata_code":"LGG","location":{"type":"Point","coordinates":[5.4432201385,50.6374015808]}},{"id":2209,"ident":"EDDB","type":"large_airport","name":"Berlin-Sch\u00f6nefeld Airport","latitude_deg":52.380001,"longitude_deg":13.5225,"elevation_ft":157.0,"continent":"EU","iso_country":"DE","iso_region":"DE-BR","municipality":"Berlin","gps_code":"EDDB","iata_code":"SXF","location":{"type":"Point","coordinates":[13.5225,52.380001]}},{"id":2210,"ident":"EDDC","type":"large_airport","name":"Dresden Airport","latitude_deg":51.1328010559,"longitude_deg":13.76720047,"elevation_ft":755.0,"continent":"EU","iso_country":"DE","iso_region":"DE-SN","municipality":"Dresden","gps_code":"EDDC","iata_code":"DRS","location":{"type":"Point","coordinates":[13.76720047,51.1328010559]}},{"id":2212,"ident":"EDDF","type":"large_airport","name":"Frankfurt am Main Airport","latitude_deg":50.033333,"longitude_deg":8.570556,"elevation_ft":364.0,"continent":"EU","iso_country":"DE","iso_region":"DE-HE","municipality":"Frankfurt am Main","gps_code":"EDDF","iata_code":"FRA","location":{"type":"Point","coordinates":[8.570556,50.033333]}},{"id":2213,"ident":"EDDG","type":"large_airport","name":"M\u00fcnster Osnabr\u00fcck Airport","latitude_deg":52.134601593,"longitude_deg":7.6848301888,"elevation_ft":160.0,"continent":"EU","iso_country":"DE","iso_region":"DE-NW","municipality":"M\u00fcnster","gps_code":"EDDG","iata_code":"FMO","location":{"type":"Point","coordinates":[7.6848301888,52.134601593]}},{"id":2214,"ident":"EDDH","type":"large_airport","name":"Hamburg Airport","latitude_deg":53.6304016113,"longitude_deg":9.9882297516,"elevation_ft":53.0,"continent":"EU","iso_country":"DE","iso_region":"DE-HH","municipality":"Hamburg","gps_code":"EDDH","iata_code":"HAM","location":{"type":"Point","coordinates":[9.9882297516,53.6304016113]}},{"id":2216,"ident":"EDDK","type":"large_airport","name":"Cologne Bonn Airport","latitude_deg":50.8658981323,"longitude_deg":7.1427397728,"elevation_ft":302.0,"continent":"EU","iso_country":"DE","iso_region":"DE-NW","municipality":"Cologne","gps_code":"EDDK","iata_code":"CGN","location":{"type":"Point","coordinates":[7.1427397728,50.8658981323]}},{"id":2217,"ident":"EDDL","type":"large_airport","name":"D\u00fcsseldorf Airport","latitude_deg":51.289501,"longitude_deg":6.76678,"elevation_ft":147.0,"continent":"EU","iso_country":"DE","iso_region":"DE-NW","municipality":"D\u00fcsseldorf","gps_code":"EDDL","iata_code":"DUS","location":{"type":"Point","coordinates":[6.76678,51.289501]}},{"id":2218,"ident":"EDDM","type":"large_airport","name":"Munich Airport","latitude_deg":48.353802,"longitude_deg":11.7861,"elevation_ft":1487.0,"continent":"EU","iso_country":"DE","iso_region":"DE-BY","municipality":"Munich","gps_code":"EDDM","iata_code":"MUC","location":{"type":"Point","coordinates":[11.7861,48.353802]}},{"id":2219,"ident":"EDDN","type":"large_airport","name":"Nuremberg Airport","latitude_deg":49.498699,"longitude_deg":11.078056,"elevation_ft":1046.0,"continent":"EU","iso_country":"DE","iso_region":"DE-BY","municipality":"Nuremberg","gps_code":"EDDN","iata_code":"NUE","location":{"type":"Point","coordinates":[11.078056,49.498699]}},{"id":2220,"ident":"EDDP","type":"large_airport","name":"Leipzig\/Halle Airport","latitude_deg":51.423889,"longitude_deg":12.236389,"elevation_ft":465.0,"continent":"EU","iso_country":"DE","iso_region":"DE-SN","municipality":"Leipzig","gps_code":"EDDP","iata_code":"LEJ","location":{"type":"Point","coordinates":[12.236389,51.423889]}},{"id":2222,"ident":"EDDS","type":"large_airport","name":"Stuttgart Airport","latitude_deg":48.6898994446,"longitude_deg":9.2219600678,"elevation_ft":1276.0,"continent":"EU","iso_country":"DE","iso_region":"DE-BW","municipality":"Stuttgart","gps_code":"EDDS","iata_code":"STR","location":{"type":"Point","coordinates":[9.2219600678,48.6898994446]}},{"id":2223,"ident":"EDDT","type":"large_airport","name":"Berlin-Tegel Airport","latitude_deg":52.5597,"longitude_deg":13.2877,"elevation_ft":122.0,"continent":"EU","iso_country":"DE","iso_region":"DE-BE","municipality":"Berlin","gps_code":"EDDT","iata_code":"TXL","location":{"type":"Point","coordinates":[13.2877,52.5597]}},{"id":2224,"ident":"EDDV","type":"large_airport","name":"Hannover Airport","latitude_deg":52.461101532,"longitude_deg":9.6850795746,"elevation_ft":183.0,"continent":"EU","iso_country":"DE","iso_region":"DE-NI","municipality":"Hannover","gps_code":"EDDV","iata_code":"HAJ","location":{"type":"Point","coordinates":[9.6850795746,52.461101532]}},{"id":2225,"ident":"EDDW","type":"large_airport","name":"Bremen Airport","latitude_deg":53.0475006104,"longitude_deg":8.7866697311,"elevation_ft":14.0,"continent":"EU","iso_country":"DE","iso_region":"DE-HB","municipality":"Bremen","gps_code":"EDDW","iata_code":"BRE","location":{"type":"Point","coordinates":[8.7866697311,53.0475006104]}},{"id":2247,"ident":"EDLW","type":"large_airport","name":"Dortmund Airport","latitude_deg":51.5182991028,"longitude_deg":7.6122398376,"elevation_ft":425.0,"continent":"EU","iso_country":"DE","iso_region":"DE-NW","municipality":"Dortmund","gps_code":"EDLW","iata_code":"DTM","location":{"type":"Point","coordinates":[7.6122398376,51.5182991028]}},{"id":2270,"ident":"EDSB","type":"large_airport","name":"Karlsruhe Baden-Baden Airport","latitude_deg":48.7793998718,"longitude_deg":8.080499649,"elevation_ft":408.0,"continent":"EU","iso_country":"DE","iso_region":"DE-BW","municipality":"Baden-Baden","gps_code":"EDSB","iata_code":"FKB","location":{"type":"Point","coordinates":[8.080499649,48.7793998718]}},{"id":2301,"ident":"EETN","type":"large_airport","name":"Lennart Meri Tallinn Airport","latitude_deg":59.4132995605,"longitude_deg":24.8327999115,"elevation_ft":131.0,"continent":"EU","iso_country":"EE","iso_region":"EE-37","municipality":"Tallinn","gps_code":"EETN","iata_code":"TLL","location":{"type":"Point","coordinates":[24.8327999115,59.4132995605]}},{"id":2307,"ident":"EFHK","type":"large_airport","name":"Helsinki Vantaa Airport","latitude_deg":60.317199707,"longitude_deg":24.963300705,"elevation_ft":179.0,"continent":"EU","iso_country":"FI","iso_region":"FI-ES","municipality":"Helsinki","gps_code":"EFHK","iata_code":"HEL","location":{"type":"Point","coordinates":[24.963300705,60.317199707]}},{"id":2385,"ident":"EGAA","type":"large_airport","name":"Belfast International Airport","latitude_deg":54.6575012207,"longitude_deg":-6.2158298492,"elevation_ft":268.0,"continent":"EU","iso_country":"GB","iso_region":"GB-NIR","municipality":"Belfast","gps_code":"EGAA","iata_code":"BFS","location":{"type":"Point","coordinates":[-6.2158298492,54.6575012207]}},{"id":2387,"ident":"EGAC","type":"large_airport","name":"George Best Belfast City Airport","latitude_deg":54.6180992126,"longitude_deg":-5.8724999428,"elevation_ft":15.0,"continent":"EU","iso_country":"GB","iso_region":"GB-NIR","municipality":"Belfast","gps_code":"EGAC","iata_code":"BHD","location":{"type":"Point","coordinates":[-5.8724999428,54.6180992126]}},{"id":2389,"ident":"EGBB","type":"large_airport","name":"Birmingham International Airport","latitude_deg":52.4538993835,"longitude_deg":-1.7480299473,"elevation_ft":327.0,"continent":"EU","iso_country":"GB","iso_region":"GB-ENG","municipality":"Birmingham","gps_code":"EGBB","iata_code":"BHX","location":{"type":"Point","coordinates":[-1.7480299473,52.4538993835]}},{"id":2398,"ident":"EGCC","type":"large_airport","name":"Manchester Airport","latitude_deg":53.3536987305,"longitude_deg":-2.2749500275,"elevation_ft":257.0,"continent":"EU","iso_country":"GB","iso_region":"GB-ENG","municipality":"Manchester","gps_code":"EGCC","iata_code":"MAN","location":{"type":"Point","coordinates":[-2.2749500275,53.3536987305]}},{"id":2401,"ident":"EGCN","type":"large_airport","name":"Robin Hood Doncaster Sheffield Airport","latitude_deg":53.4805378105,"longitude_deg":-1.0106563568,"elevation_ft":55.0,"continent":"EU","iso_country":"GB","iso_region":"GB-ENG","municipality":"Doncaster","gps_code":"EGCN","iata_code":"DSA","location":{"type":"Point","coordinates":[-1.0106563568,53.4805378105]}},{"id":2415,"ident":"EGFF","type":"large_airport","name":"Cardiff International Airport","latitude_deg":51.3967018127,"longitude_deg":-3.3433299065,"elevation_ft":220.0,"continent":"EU","iso_country":"GB","iso_region":"GB-WLS","municipality":"Cardiff","gps_code":"EGFF","iata_code":"CWL","location":{"type":"Point","coordinates":[-3.3433299065,51.3967018127]}},{"id":2417,"ident":"EGGD","type":"large_airport","name":"Bristol Airport","latitude_deg":51.382702,"longitude_deg":-2.71909,"elevation_ft":622.0,"continent":"EU","iso_country":"GB","iso_region":"GB-ENG","municipality":"Bristol","gps_code":"EGGD","iata_code":"BRS","location":{"type":"Point","coordinates":[-2.71909,51.382702]}},{"id":2418,"ident":"EGGP","type":"large_airport","name":"Liverpool John Lennon Airport","latitude_deg":53.3335990906,"longitude_deg":-2.8497200012,"elevation_ft":80.0,"continent":"EU","iso_country":"GB","iso_region":"GB-ENG","municipality":"Liverpool","gps_code":"EGGP","iata_code":"LPL","location":{"type":"Point","coordinates":[-2.8497200012,53.3335990906]}},{"id":2419,"ident":"EGGW","type":"large_airport","name":"London Luton Airport","latitude_deg":51.8746986389,"longitude_deg":-0.3683330119,"elevation_ft":526.0,"continent":"EU","iso_country":"GB","iso_region":"GB-ENG","municipality":"London","gps_code":"EGGW","iata_code":"LTN","location":{"type":"Point","coordinates":[-0.3683330119,51.8746986389]}},{"id":2421,"ident":"EGHH","type":"large_airport","name":"Bournemouth Airport","latitude_deg":50.7799987793,"longitude_deg":-1.8424999714,"elevation_ft":38.0,"continent":"EU","iso_country":"GB","iso_region":"GB-ENG","municipality":"Bournemouth","gps_code":"EGHH","iata_code":"BOH","location":{"type":"Point","coordinates":[-1.8424999714,50.7799987793]}},{"id":2422,"ident":"EGHI","type":"large_airport","name":"Southampton Airport","latitude_deg":50.9502983093,"longitude_deg":-1.3567999601,"elevation_ft":44.0,"continent":"EU","iso_country":"GB","iso_region":"GB-ENG","municipality":"Southampton","gps_code":"EGHI","iata_code":"SOU","location":{"type":"Point","coordinates":[-1.3567999601,50.9502983093]}},{"id":2429,"ident":"EGKK","type":"large_airport","name":"London Gatwick Airport","latitude_deg":51.148102,"longitude_deg":-0.190278,"elevation_ft":202.0,"continent":"EU","iso_country":"GB","iso_region":"GB-ENG","municipality":"London","gps_code":"EGKK","iata_code":"LGW","location":{"type":"Point","coordinates":[-0.190278,51.148102]}},{"id":2434,"ident":"EGLL","type":"large_airport","name":"London Heathrow Airport","latitude_deg":51.4706,"longitude_deg":-0.461941,"elevation_ft":83.0,"continent":"EU","iso_country":"GB","iso_region":"GB-ENG","municipality":"London","gps_code":"EGLL","iata_code":"LHR","location":{"type":"Point","coordinates":[-0.461941,51.4706]}},{"id":2444,"ident":"EGNM","type":"large_airport","name":"Leeds Bradford Airport","latitude_deg":53.8658981323,"longitude_deg":-1.6605700254,"elevation_ft":681.0,"continent":"EU","iso_country":"GB","iso_region":"GB-ENG","municipality":"Leeds","gps_code":"EGNM","iata_code":"LBA","location":{"type":"Point","coordinates":[-1.6605700254,53.8658981323]}},{"id":2448,"ident":"EGNT","type":"large_airport","name":"Newcastle Airport","latitude_deg":55.0374984741,"longitude_deg":-1.6916699409,"elevation_ft":266.0,"continent":"EU","iso_country":"GB","iso_region":"GB-ENG","municipality":"Newcastle","gps_code":"EGNT","iata_code":"NCL","location":{"type":"Point","coordinates":[-1.6916699409,55.0374984741]}},{"id":2450,"ident":"EGNX","type":"large_airport","name":"East Midlands Airport","latitude_deg":52.8311004639,"longitude_deg":-1.3280600309,"elevation_ft":306.0,"continent":"EU","iso_country":"GB","iso_region":"GB-ENG","municipality":"Nottingham","gps_code":"EGNX","iata_code":"EMA","location":{"type":"Point","coordinates":[-1.3280600309,52.8311004639]}},{"id":2459,"ident":"EGPD","type":"large_airport","name":"Aberdeen Dyce Airport","latitude_deg":57.2019004822,"longitude_deg":-2.1977798939,"elevation_ft":215.0,"continent":"EU","iso_country":"GB","iso_region":"GB-SCT","municipality":"Aberdeen","gps_code":"EGPD","iata_code":"ABZ","location":{"type":"Point","coordinates":[-2.1977798939,57.2019004822]}},{"id":2461,"ident":"EGPF","type":"large_airport","name":"Glasgow International Airport","latitude_deg":55.871899,"longitude_deg":-4.43306,"elevation_ft":26.0,"continent":"EU","iso_country":"GB","iso_region":"GB-SCT","municipality":"Glasgow","gps_code":"EGPF","iata_code":"GLA","location":{"type":"Point","coordinates":[-4.43306,55.871899]}},{"id":2462,"ident":"EGPH","type":"large_airport","name":"Edinburgh Airport","latitude_deg":55.9500007629,"longitude_deg":-3.3724999428,"elevation_ft":135.0,"continent":"EU","iso_country":"GB","iso_region":"GB-SCT","municipality":"Edinburgh","gps_code":"EGPH","iata_code":"EDI","location":{"type":"Point","coordinates":[-3.3724999428,55.9500007629]}},{"id":2475,"ident":"EGSH","type":"large_airport","name":"Norwich International Airport","latitude_deg":52.6758003235,"longitude_deg":1.2827800512,"elevation_ft":117.0,"continent":"EU","iso_country":"GB","iso_region":"GB-ENG","municipality":"Norwich","gps_code":"EGSH","iata_code":"NWI","location":{"type":"Point","coordinates":[1.2827800512,52.6758003235]}},{"id":2476,"ident":"EGSS","type":"large_airport","name":"London Stansted Airport","latitude_deg":51.8849983215,"longitude_deg":0.2349999994,"elevation_ft":348.0,"continent":"EU","iso_country":"GB","iso_region":"GB-ENG","municipality":"London","gps_code":"EGSS","iata_code":"STN","location":{"type":"Point","coordinates":[0.2349999994,51.8849983215]}},{"id":2481,"ident":"EGTE","type":"large_airport","name":"Exeter International Airport","latitude_deg":50.7344017029,"longitude_deg":-3.4138898849,"elevation_ft":102.0,"continent":"EU","iso_country":"GB","iso_region":"GB-ENG","municipality":"Exeter","gps_code":"EGTE","iata_code":"EXT","location":{"type":"Point","coordinates":[-3.4138898849,50.7344017029]}},{"id":2487,"ident":"EGUL","type":"large_airport","name":"RAF Lakenheath","latitude_deg":52.4093017578,"longitude_deg":0.5609999895,"elevation_ft":32.0,"continent":"EU","iso_country":"GB","iso_region":"GB-ENG","municipality":"Lakenheath","gps_code":"EGUL","iata_code":"LKZ","location":{"type":"Point","coordinates":[0.5609999895,52.4093017578]}},{"id":2488,"ident":"EGUN","type":"large_airport","name":"RAF Mildenhall","latitude_deg":52.3619003296,"longitude_deg":0.4864059985,"elevation_ft":33.0,"continent":"EU","iso_country":"GB","iso_region":"GB-ENG","municipality":"Mildenhall","gps_code":"EGUN","iata_code":"MHZ","location":{"type":"Point","coordinates":[0.4864059985,52.3619003296]}},{"id":2492,"ident":"EGVA","type":"large_airport","name":"RAF Fairford","latitude_deg":51.6822013855,"longitude_deg":-1.7900300026,"elevation_ft":286.0,"continent":"EU","iso_country":"GB","iso_region":"GB-ENG","municipality":"Fairford","gps_code":"EGVA","iata_code":"FFD","location":{"type":"Point","coordinates":[-1.7900300026,51.6822013855]}},{"id":2493,"ident":"EGVN","type":"large_airport","name":"RAF Brize Norton","latitude_deg":51.75,"longitude_deg":-1.58362,"elevation_ft":288.0,"continent":"EU","iso_country":"GB","iso_region":"GB-ENG","municipality":"Brize Norton","gps_code":"EGVN","iata_code":"BZZ","location":{"type":"Point","coordinates":[-1.58362,51.75]}},{"id":2513,"ident":"EHAM","type":"large_airport","name":"Amsterdam Airport Schiphol","latitude_deg":52.308601,"longitude_deg":4.76389,"elevation_ft":-11.0,"continent":"EU","iso_country":"NL","iso_region":"NL-NH","municipality":"Amsterdam","gps_code":"EHAM","iata_code":"AMS","location":{"type":"Point","coordinates":[4.76389,52.308601]}},{"id":2518,"ident":"EHEH","type":"large_airport","name":"Eindhoven Airport","latitude_deg":51.4500999451,"longitude_deg":5.3745298386,"elevation_ft":74.0,"continent":"EU","iso_country":"NL","iso_region":"NL-NB","municipality":"Eindhoven","gps_code":"EHEH","iata_code":"EIN","location":{"type":"Point","coordinates":[5.3745298386,51.4500999451]}},{"id":2530,"ident":"EICK","type":"large_airport","name":"Cork Airport","latitude_deg":51.8413009644,"longitude_deg":-8.491109848,"elevation_ft":502.0,"continent":"EU","iso_country":"IE","iso_region":"IE-C","municipality":"Cork","gps_code":"EICK","iata_code":"ORK","location":{"type":"Point","coordinates":[-8.491109848,51.8413009644]}},{"id":2533,"ident":"EIDW","type":"large_airport","name":"Dublin Airport","latitude_deg":53.421299,"longitude_deg":-6.27007,"elevation_ft":242.0,"continent":"EU","iso_country":"IE","iso_region":"IE-D","municipality":"Dublin","gps_code":"EIDW","iata_code":"DUB","location":{"type":"Point","coordinates":[-6.27007,53.421299]}},{"id":2537,"ident":"EINN","type":"large_airport","name":"Shannon Airport","latitude_deg":52.702,"longitude_deg":-8.92482,"elevation_ft":46.0,"continent":"EU","iso_country":"IE","iso_region":"IE-CE","municipality":"Shannon","gps_code":"EINN","iata_code":"SNN","location":{"type":"Point","coordinates":[-8.92482,52.702]}},{"id":2541,"ident":"EKBI","type":"large_airport","name":"Billund Airport","latitude_deg":55.7402992249,"longitude_deg":9.1517801285,"elevation_ft":247.0,"continent":"EU","iso_country":"DK","iso_region":"DK-83","municipality":"Billund","gps_code":"EKBI","iata_code":"BLL","location":{"type":"Point","coordinates":[9.1517801285,55.7402992249]}},{"id":2542,"ident":"EKCH","type":"large_airport","name":"Copenhagen Kastrup Airport","latitude_deg":55.6179008484,"longitude_deg":12.6560001373,"elevation_ft":17.0,"continent":"EU","iso_country":"DK","iso_region":"DK-84","municipality":"Copenhagen","gps_code":"EKCH","iata_code":"CPH","location":{"type":"Point","coordinates":[12.6560001373,55.6179008484]}},{"id":2562,"ident":"EKYT","type":"large_airport","name":"Aalborg Airport","latitude_deg":57.0927589138,"longitude_deg":9.8492431641,"elevation_ft":10.0,"continent":"EU","iso_country":"DK","iso_region":"DK-81","municipality":"Aalborg","gps_code":"EKYT","iata_code":"AAL","location":{"type":"Point","coordinates":[9.8492431641,57.0927589138]}},{"id":2563,"ident":"ELLX","type":"large_airport","name":"Luxembourg-Findel International Airport","latitude_deg":49.6233333,"longitude_deg":6.2044444,"elevation_ft":1234.0,"continent":"EU","iso_country":"LU","iso_region":"LU-L","municipality":"Luxembourg","gps_code":"ELLX","iata_code":"LUX","location":{"type":"Point","coordinates":[6.2044444,49.6233333]}},{"id":2569,"ident":"ENBO","type":"large_airport","name":"Bod\u00f8 Airport","latitude_deg":67.269203186,"longitude_deg":14.3653001785,"elevation_ft":42.0,"continent":"EU","iso_country":"NO","iso_region":"NO-18","municipality":"Bod\u00f8","gps_code":"ENBO","iata_code":"BOO","location":{"type":"Point","coordinates":[14.3653001785,67.269203186]}},{"id":2570,"ident":"ENBR","type":"large_airport","name":"Bergen Airport Flesland","latitude_deg":60.29339981,"longitude_deg":5.218140125,"elevation_ft":170.0,"continent":"EU","iso_country":"NO","iso_region":"NO-12","municipality":"Bergen","gps_code":"ENBR","iata_code":"BGO","location":{"type":"Point","coordinates":[5.218140125,60.29339981]}},{"id":2578,"ident":"ENGM","type":"large_airport","name":"Oslo Gardermoen Airport","latitude_deg":60.193901062,"longitude_deg":11.100399971,"elevation_ft":681.0,"continent":"EU","iso_country":"NO","iso_region":"NO-02","municipality":"Oslo","gps_code":"ENGM","iata_code":"OSL","location":{"type":"Point","coordinates":[11.100399971,60.193901062]}},{"id":2599,"ident":"ENTC","type":"large_airport","name":"Troms\u00f8 Airport","latitude_deg":69.6832962036,"longitude_deg":18.9188995361,"elevation_ft":31.0,"continent":"EU","iso_country":"NO","iso_region":"NO-19","municipality":"Troms\u00f8","gps_code":"ENTC","iata_code":"TOS","location":{"type":"Point","coordinates":[18.9188995361,69.6832962036]}},{"id":2601,"ident":"ENVA","type":"large_airport","name":"Trondheim Airport V\u00e6rnes","latitude_deg":63.4578018,"longitude_deg":10.9239998,"elevation_ft":56.0,"continent":"EU","iso_country":"NO","iso_region":"NO-17","municipality":"Trondheim","gps_code":"ENVA","iata_code":"TRD","location":{"type":"Point","coordinates":[10.9239998,63.4578018]}},{"id":2602,"ident":"ENZV","type":"large_airport","name":"Stavanger Airport Sola","latitude_deg":58.876701354,"longitude_deg":5.6377801895,"elevation_ft":29.0,"continent":"EU","iso_country":"NO","iso_region":"NO-11","municipality":"Stavanger","gps_code":"ENZV","iata_code":"SVG","location":{"type":"Point","coordinates":[5.6377801895,58.876701354]}},{"id":2608,"ident":"EPGD","type":"large_airport","name":"Gda\u0144sk Lech Wa\u0142\u0119sa Airport","latitude_deg":54.3776016235,"longitude_deg":18.4661998749,"elevation_ft":489.0,"continent":"EU","iso_country":"PL","iso_region":"PL-PM","municipality":"Gda\u0144sk","gps_code":"EPGD","iata_code":"GDN","location":{"type":"Point","coordinates":[18.4661998749,54.3776016235]}},{"id":2609,"ident":"EPKK","type":"large_airport","name":"Krak\u00f3w John Paul II International Airport","latitude_deg":50.077702,"longitude_deg":19.7848,"elevation_ft":791.0,"continent":"EU","iso_country":"PL","iso_region":"PL-MA","municipality":"Krak\u00f3w","gps_code":"EPKK","iata_code":"KRK","location":{"type":"Point","coordinates":[19.7848,50.077702]}},{"id":2613,"ident":"EPKT","type":"large_airport","name":"Katowice International Airport","latitude_deg":50.4743,"longitude_deg":19.08,"elevation_ft":995.0,"continent":"EU","iso_country":"PL","iso_region":"PL-SL","municipality":"Katowice","gps_code":"EPKT","iata_code":"KTW","location":{"type":"Point","coordinates":[19.08,50.4743]}},{"id":2622,"ident":"EPMO","type":"large_airport","name":"Modlin Airport","latitude_deg":52.451099,"longitude_deg":20.6518,"elevation_ft":341.0,"continent":"EU","iso_country":"PL","iso_region":"PL-MZ","municipality":"Warsaw","gps_code":"EPMO","iata_code":"WMI","location":{"type":"Point","coordinates":[20.6518,52.451099]}},{"id":2625,"ident":"EPPO","type":"large_airport","name":"Pozna\u0144-\u0141awica Airport","latitude_deg":52.4210014343,"longitude_deg":16.8262996674,"elevation_ft":308.0,"continent":"EU","iso_country":"PL","iso_region":"PL-WP","municipality":"Pozna\u0144","gps_code":"EPPO","iata_code":"POZ","location":{"type":"Point","coordinates":[16.8262996674,52.4210014343]}},{"id":2637,"ident":"EPWA","type":"large_airport","name":"Warsaw Chopin Airport","latitude_deg":52.1656990051,"longitude_deg":20.9671001434,"elevation_ft":362.0,"continent":"EU","iso_country":"PL","iso_region":"PL-MZ","municipality":"Warsaw","gps_code":"EPWA","iata_code":"WAW","location":{"type":"Point","coordinates":[20.9671001434,52.1656990051]}},{"id":2638,"ident":"EPWR","type":"large_airport","name":"Copernicus Wroc\u0142aw Airport","latitude_deg":51.1026992798,"longitude_deg":16.885799408,"elevation_ft":404.0,"continent":"EU","iso_country":"PL","iso_region":"PL-DS","municipality":"Wroc\u0142aw","gps_code":"EPWR","iata_code":"WRO","location":{"type":"Point","coordinates":[16.885799408,51.1026992798]}},{"id":2648,"ident":"ESGG","type":"large_airport","name":"Gothenburg-Landvetter Airport","latitude_deg":57.6627998352,"longitude_deg":12.279800415,"elevation_ft":506.0,"continent":"EU","iso_country":"SE","iso_region":"SE-Q","municipality":"Gothenburg","gps_code":"ESGG","iata_code":"GOT","location":{"type":"Point","coordinates":[12.279800415,57.6627998352]}},{"id":2669,"ident":"ESMS","type":"large_airport","name":"Malm\u00f6 Sturup Airport","latitude_deg":55.536305364,"longitude_deg":13.3761978149,"elevation_ft":236.0,"continent":"EU","iso_country":"SE","iso_region":"SE-M","municipality":"Malm\u00f6","gps_code":"ESMS","iata_code":"MMX","location":{"type":"Point","coordinates":[13.3761978149,55.536305364]}},{"id":2697,"ident":"ESPA","type":"large_airport","name":"Lule\u00e5 Airport","latitude_deg":65.543800354,"longitude_deg":22.1219997406,"elevation_ft":65.0,"continent":"EU","iso_country":"SE","iso_region":"SE-BD","municipality":"Lule\u00e5","gps_code":"ESPA","iata_code":"LLA","location":{"type":"Point","coordinates":[22.1219997406,65.543800354]}},{"id":2701,"ident":"ESSA","type":"large_airport","name":"Stockholm-Arlanda Airport","latitude_deg":59.6519012451,"longitude_deg":17.9186000824,"elevation_ft":137.0,"continent":"EU","iso_country":"SE","iso_region":"SE-AB","municipality":"Stockholm","gps_code":"ESSA","iata_code":"ARN","location":{"type":"Point","coordinates":[17.9186000824,59.6519012451]}},{"id":2718,"ident":"ETAR","type":"large_airport","name":"Ramstein Air Base","latitude_deg":49.4369010925,"longitude_deg":7.600279808,"elevation_ft":776.0,"continent":"EU","iso_country":"DE","iso_region":"DE-RP","municipality":"Ramstein","gps_code":"ETAR","iata_code":"RMS","location":{"type":"Point","coordinates":[7.600279808,49.4369010925]}},{"id":2758,"ident":"EVRA","type":"large_airport","name":"Riga International Airport","latitude_deg":56.9235992432,"longitude_deg":23.9710998535,"elevation_ft":36.0,"continent":"EU","iso_country":"LV","iso_region":"LV-RIX","municipality":"Riga","gps_code":"EVRA","iata_code":"RIX","location":{"type":"Point","coordinates":[23.9710998535,56.9235992432]}},{"id":2766,"ident":"EYVI","type":"large_airport","name":"Vilnius International Airport","latitude_deg":54.634102,"longitude_deg":25.285801,"elevation_ft":648.0,"continent":"EU","iso_country":"LT","iso_region":"LT-VL","municipality":"Vilnius","gps_code":"EYVI","iata_code":"VNO","location":{"type":"Point","coordinates":[25.285801,54.634102]}},{"id":2775,"ident":"FACT","type":"large_airport","name":"Cape Town International Airport","latitude_deg":-33.9648017883,"longitude_deg":18.6016998291,"elevation_ft":151.0,"continent":"AF","iso_country":"ZA","iso_region":"ZA-WC","municipality":"Cape Town","gps_code":"FACT","iata_code":"CPT","location":{"type":"Point","coordinates":[18.6016998291,-33.9648017883]}},{"id":2783,"ident":"FAGG","type":"large_airport","name":"George Airport","latitude_deg":-34.0056,"longitude_deg":22.378902,"elevation_ft":648.0,"continent":"AF","iso_country":"ZA","iso_region":"ZA-WC","municipality":"George","gps_code":"FAGG","iata_code":"GRJ","location":{"type":"Point","coordinates":[22.378902,-34.0056]}},{"id":2792,"ident":"FAJS","type":"large_airport","name":"OR Tambo International Airport","latitude_deg":-26.1392,"longitude_deg":28.246,"elevation_ft":5558.0,"continent":"AF","iso_country":"ZA","iso_region":"ZA-GT","municipality":"Johannesburg","gps_code":"FAOR","iata_code":"JNB","location":{"type":"Point","coordinates":[28.246,-26.1392]}},{"id":300795,"ident":"FALE","type":"large_airport","name":"King Shaka International Airport","latitude_deg":-29.6144444444,"longitude_deg":31.1197222222,"elevation_ft":295.0,"continent":"AF","iso_country":"ZA","iso_region":"ZA-NL","municipality":"Durban","gps_code":"FALE","iata_code":"DUR","location":{"type":"Point","coordinates":[31.1197222222,-29.6144444444]}},{"id":2864,"ident":"FBSK","type":"large_airport","name":"Sir Seretse Khama International Airport","latitude_deg":-24.555201,"longitude_deg":25.9182,"elevation_ft":3299.0,"continent":"AF","iso_country":"BW","iso_region":"BW-SE","municipality":"Gaborone","gps_code":"FBSK","iata_code":"GBE","location":{"type":"Point","coordinates":[25.9182,-24.555201]}},{"id":2878,"ident":"FIMP","type":"large_airport","name":"Sir Seewoosagur Ramgoolam International Airport","latitude_deg":-20.430201,"longitude_deg":57.683601,"elevation_ft":186.0,"continent":"AF","iso_country":"MU","iso_region":"MU-GP","municipality":"Port Louis","gps_code":"FIMP","iata_code":"MRU","location":{"type":"Point","coordinates":[57.683601,-20.430201]}},{"id":2894,"ident":"FLLS","type":"large_airport","name":"Kenneth Kaunda International Airport","latitude_deg":-15.3308,"longitude_deg":28.4526,"elevation_ft":3779.0,"continent":"AF","iso_country":"ZM","iso_region":"ZM-09","municipality":"Lusaka","gps_code":"FLKK","iata_code":"LUN","location":{"type":"Point","coordinates":[28.4526,-15.3308]}},{"id":2908,"ident":"FMMI","type":"large_airport","name":"Ivato Airport","latitude_deg":-18.7969,"longitude_deg":47.478802,"elevation_ft":4198.0,"continent":"AF","iso_country":"MG","iso_region":"MG-T","municipality":"Antananarivo","gps_code":"FMMI","iata_code":"TNR","location":{"type":"Point","coordinates":[47.478802,-18.7969]}},{"id":2942,"ident":"FNLU","type":"large_airport","name":"Quatro de Fevereiro Airport","latitude_deg":-8.85837,"longitude_deg":13.2312,"elevation_ft":243.0,"continent":"AF","iso_country":"AO","iso_region":"AO-LUA","municipality":"Luanda","gps_code":"FNLU","iata_code":"LAD","location":{"type":"Point","coordinates":[13.2312,-8.85837]}},{"id":2975,"ident":"FQMA","type":"large_airport","name":"Maputo Airport","latitude_deg":-25.920799,"longitude_deg":32.572601,"elevation_ft":145.0,"continent":"AF","iso_country":"MZ","iso_region":"MZ-MPM","municipality":"Maputo","gps_code":"FQMA","iata_code":"MPM","location":{"type":"Point","coordinates":[32.572601,-25.920799]}},{"id":2993,"ident":"FSIA","type":"large_airport","name":"Seychelles International Airport","latitude_deg":-4.67434,"longitude_deg":55.521801,"elevation_ft":10.0,"continent":"AF","iso_country":"SC","iso_region":"SC-20","municipality":"Mahe Island","gps_code":"FSIA","iata_code":"SEZ","location":{"type":"Point","coordinates":[55.521801,-4.67434]}},{"id":2998,"ident":"FTTJ","type":"large_airport","name":"N'Djamena International Airport","latitude_deg":12.1337,"longitude_deg":15.034,"elevation_ft":968.0,"continent":"AF","iso_country":"TD","iso_region":"TD-CB","municipality":"N'Djamena","gps_code":"FTTJ","iata_code":"NDJ","location":{"type":"Point","coordinates":[15.034,12.1337]}},{"id":3005,"ident":"FVHA","type":"large_airport","name":"Robert Gabriel Mugabe International Airport","latitude_deg":-17.931801,"longitude_deg":31.0928,"elevation_ft":4887.0,"continent":"AF","iso_country":"ZW","iso_region":"ZW-HA","municipality":"Harare","gps_code":"FVRG","iata_code":"HRE","location":{"type":"Point","coordinates":[31.0928,-17.931801]}},{"id":3039,"ident":"FYWH","type":"large_airport","name":"Hosea Kutako International Airport","latitude_deg":-22.4799,"longitude_deg":17.4709,"elevation_ft":5640.0,"continent":"AF","iso_country":null,"iso_region":"NA-KH","municipality":"Windhoek","gps_code":"FYWH","iata_code":"WDH","location":{"type":"Point","coordinates":[17.4709,-22.4799]}},{"id":3040,"ident":"FZAA","type":"large_airport","name":"Ndjili International Airport","latitude_deg":-4.38575,"longitude_deg":15.4446,"elevation_ft":1027.0,"continent":"AF","iso_country":"CD","iso_region":"CD-KN","municipality":"Kinshasa","gps_code":"FZAA","iata_code":"FIH","location":{"type":"Point","coordinates":[15.4446,-4.38575]}},{"id":3066,"ident":"GABS","type":"large_airport","name":"Modibo Keita International Airport","latitude_deg":12.5335,"longitude_deg":-7.94994,"elevation_ft":1247.0,"continent":"AF","iso_country":"ML","iso_region":"ML-2","municipality":"Bamako","gps_code":"GABS","iata_code":"BKO","location":{"type":"Point","coordinates":[-7.94994,12.5335]}},{"id":307930,"ident":"GB-0099","type":"balloonport","name":"RAF Ashbourne","latitude_deg":53.006944,"longitude_deg":-1.706944,"elevation_ft":null,"continent":"EU","iso_country":"GB","iso_region":"GB-ENG","municipality":"Derbyshire","gps_code":null,"iata_code":null,"location":{"type":"Point","coordinates":[-1.706944,53.006944]}},{"id":3080,"ident":"GCLA","type":"large_airport","name":"La Palma Airport","latitude_deg":28.626499,"longitude_deg":-17.7556,"elevation_ft":107.0,"continent":"EU","iso_country":"ES","iso_region":"ES-CN","municipality":"Sta Cruz de la Palma, La Palma Island","gps_code":"GCLA","iata_code":"SPC","location":{"type":"Point","coordinates":[-17.7556,28.626499]}},{"id":3081,"ident":"GCLP","type":"large_airport","name":"Gran Canaria Airport","latitude_deg":27.9319000244,"longitude_deg":-15.3865995407,"elevation_ft":78.0,"continent":"EU","iso_country":"ES","iso_region":"ES-CN","municipality":"Gran Canaria Island","gps_code":"GCLP","iata_code":"LPA","location":{"type":"Point","coordinates":[-15.3865995407,27.9319000244]}},{"id":3083,"ident":"GCTS","type":"large_airport","name":"Tenerife South Airport","latitude_deg":28.044500351,"longitude_deg":-16.5725002289,"elevation_ft":209.0,"continent":"EU","iso_country":"ES","iso_region":"ES-CN","municipality":"Tenerife Island","gps_code":"GCTS","iata_code":"TFS","location":{"type":"Point","coordinates":[-16.5725002289,28.044500351]}},{"id":3084,"ident":"GCXO","type":"large_airport","name":"Tenerife Norte Airport","latitude_deg":28.4827003479,"longitude_deg":-16.3414993286,"elevation_ft":2076.0,"continent":"EU","iso_country":"ES","iso_region":"ES-CN","municipality":"Tenerife Island","gps_code":"GCXO","iata_code":"TFN","location":{"type":"Point","coordinates":[-16.3414993286,28.4827003479]}},{"id":3095,"ident":"GFLL","type":"large_airport","name":"Lungi International Airport","latitude_deg":8.61644,"longitude_deg":-13.1955,"elevation_ft":84.0,"continent":"AF","iso_country":"SL","iso_region":"SL-N","municipality":"Freetown","gps_code":"GFLL","iata_code":"FNA","location":{"type":"Point","coordinates":[-13.1955,8.61644]}},{"id":3099,"ident":"GLRB","type":"large_airport","name":"Roberts International Airport","latitude_deg":6.23379,"longitude_deg":-10.3623,"elevation_ft":31.0,"continent":"AF","iso_country":"LR","iso_region":"LR-MG","municipality":"Monrovia","gps_code":"GLRB","iata_code":"ROB","location":{"type":"Point","coordinates":[-10.3623,6.23379]}},{"id":3113,"ident":"GMMN","type":"large_airport","name":"Mohammed V International Airport","latitude_deg":33.3675003052,"longitude_deg":-7.5899701118,"elevation_ft":656.0,"continent":"AF","iso_country":"MA","iso_region":"MA-CAS","municipality":"Casablanca","gps_code":"GMMN","iata_code":"CMN","location":{"type":"Point","coordinates":[-7.5899701118,33.3675003052]}},{"id":325736,"ident":"GOBD","type":"large_airport","name":"Blaise Diagne International Airport","latitude_deg":14.67,"longitude_deg":-17.073333,"elevation_ft":290.0,"continent":"AF","iso_country":"SN","iso_region":"SN-DK","municipality":"Dakar","gps_code":"GOBD","iata_code":"DSS","location":{"type":"Point","coordinates":[-17.073333,14.67]}},{"id":3125,"ident":"GOOY","type":"large_airport","name":"L\u00e9opold S\u00e9dar Senghor International Airport","latitude_deg":14.7397003174,"longitude_deg":-17.4902000427,"elevation_ft":85.0,"continent":"AF","iso_country":"SN","iso_region":"SN-DK","municipality":"Dakar","gps_code":"GOOY","iata_code":"DKR","location":{"type":"Point","coordinates":[-17.4902000427,14.7397003174]}},{"id":323315,"ident":"GQNO","type":"large_airport","name":"Nouakchott\u2013Oumtounsy International Airport","latitude_deg":18.31,"longitude_deg":-15.9697222,"elevation_ft":9.0,"continent":"AF","iso_country":"MR","iso_region":"MR-NKC","municipality":"Nouakchott","gps_code":"GQNO","iata_code":"NKC","location":{"type":"Point","coordinates":[-15.9697222,18.31]}},{"id":3150,"ident":"GVAC","type":"large_airport","name":"Am\u00edlcar Cabral International Airport","latitude_deg":16.7414,"longitude_deg":-22.9494,"elevation_ft":177.0,"continent":"AF","iso_country":"CV","iso_region":"CV-B","municipality":"Espargos","gps_code":"GVAC","iata_code":"SID","location":{"type":"Point","coordinates":[-22.9494,16.7414]}},{"id":3157,"ident":"HAAB","type":"large_airport","name":"Addis Ababa Bole International Airport","latitude_deg":8.9778900147,"longitude_deg":38.7993011475,"elevation_ft":7630.0,"continent":"AF","iso_country":"ET","iso_region":"ET-AA","municipality":"Addis Ababa","gps_code":"HAAB","iata_code":"ADD","location":{"type":"Point","coordinates":[38.7993011475,8.9778900147]}},{"id":3171,"ident":"HCMH","type":"large_airport","name":"Egal International Airport","latitude_deg":9.513207,"longitude_deg":44.082389,"elevation_ft":4471.0,"continent":"AF","iso_country":"SO","iso_region":"SO-WO","municipality":"Hargeisa","gps_code":"HCMH","iata_code":"HGA","location":{"type":"Point","coordinates":[44.082389,9.513207]}},{"id":3183,"ident":"HECA","type":"large_airport","name":"Cairo International Airport","latitude_deg":30.1219005585,"longitude_deg":31.4055995941,"elevation_ft":382.0,"continent":"AF","iso_country":"EG","iso_region":"EG-C","municipality":"Cairo","gps_code":"HECA","iata_code":"CAI","location":{"type":"Point","coordinates":[31.4055995941,30.1219005585]}},{"id":3186,"ident":"HEGN","type":"large_airport","name":"Hurghada International Airport","latitude_deg":27.1783008575,"longitude_deg":33.7994003296,"elevation_ft":52.0,"continent":"AF","iso_country":"EG","iso_region":"EG-BA","municipality":"Hurghada","gps_code":"HEGN","iata_code":"HRG","location":{"type":"Point","coordinates":[33.7994003296,27.1783008575]}},{"id":3191,"ident":"HELX","type":"large_airport","name":"Luxor International Airport","latitude_deg":25.671,"longitude_deg":32.7066,"elevation_ft":294.0,"continent":"AF","iso_country":"EG","iso_region":"EG-KN","municipality":"Luxor","gps_code":"HELX","iata_code":"LXR","location":{"type":"Point","coordinates":[32.7066,25.671]}},{"id":3206,"ident":"HKJK","type":"large_airport","name":"Jomo Kenyatta International Airport","latitude_deg":-1.319239974,"longitude_deg":36.9277992249,"elevation_ft":5330.0,"continent":"AF","iso_country":"KE","iso_region":"KE-110","municipality":"Nairobi","gps_code":"HKJK","iata_code":"NBO","location":{"type":"Point","coordinates":[36.9277992249,-1.319239974]}},{"id":3213,"ident":"HKMO","type":"large_airport","name":"Mombasa Moi International Airport","latitude_deg":-4.0348300934,"longitude_deg":39.5942001343,"elevation_ft":200.0,"continent":"AF","iso_country":"KE","iso_region":"KE-300","municipality":"Mombasa","gps_code":"HKMO","iata_code":"MBA","location":{"type":"Point","coordinates":[39.5942001343,-4.0348300934]}},{"id":3227,"ident":"HLLT","type":"large_airport","name":"Tripoli International Airport","latitude_deg":32.6635017395,"longitude_deg":13.1590003967,"elevation_ft":263.0,"continent":"AF","iso_country":"LY","iso_region":"LY-TB","municipality":"Tripoli","gps_code":"HLLT","iata_code":"TIP","location":{"type":"Point","coordinates":[13.1590003967,32.6635017395]}},{"id":3237,"ident":"HRYR","type":"large_airport","name":"Kigali International Airport","latitude_deg":-1.96863,"longitude_deg":30.1395,"elevation_ft":4859.0,"continent":"AF","iso_country":"RW","iso_region":"RW-01","municipality":"Kigali","gps_code":"HRYR","iata_code":"KGL","location":{"type":"Point","coordinates":[30.1395,-1.96863]}},{"id":3247,"ident":"HSSJ","type":"large_airport","name":"Juba International Airport","latitude_deg":4.872010231,"longitude_deg":31.6011009216,"elevation_ft":1513.0,"continent":"AF","iso_country":"SS","iso_region":"SS-17","municipality":"Juba","gps_code":"HSSJ","iata_code":"JUB","location":{"type":"Point","coordinates":[31.6011009216,4.872010231]}},{"id":3249,"ident":"HSSS","type":"large_airport","name":"Khartoum International Airport","latitude_deg":15.5895004272,"longitude_deg":32.5531997681,"elevation_ft":1265.0,"continent":"AF","iso_country":"SD","iso_region":"SD-03","municipality":"Khartoum","gps_code":"HSSS","iata_code":"KRT","location":{"type":"Point","coordinates":[32.5531997681,15.5895004272]}},{"id":3251,"ident":"HTDA","type":"large_airport","name":"Julius Nyerere International Airport","latitude_deg":-6.87811,"longitude_deg":39.202599,"elevation_ft":182.0,"continent":"AF","iso_country":"TZ","iso_region":"TZ-02","municipality":"Dar es Salaam","gps_code":"HTDA","iata_code":"DAR","location":{"type":"Point","coordinates":[39.202599,-6.87811]}},{"id":3260,"ident":"HTZA","type":"large_airport","name":"Abeid Amani Karume International Airport","latitude_deg":-6.22202,"longitude_deg":39.224899,"elevation_ft":54.0,"continent":"AF","iso_country":"TZ","iso_region":"TZ-07","municipality":"Zanzibar","gps_code":"HTZA","iata_code":"ZNZ","location":{"type":"Point","coordinates":[39.224899,-6.22202]}},{"id":3263,"ident":"HUEN","type":"large_airport","name":"Entebbe International Airport","latitude_deg":0.042386,"longitude_deg":32.443501,"elevation_ft":3782.0,"continent":"AF","iso_country":"UG","iso_region":"UG-C","municipality":"Kampala","gps_code":"HUEN","iata_code":"EBB","location":{"type":"Point","coordinates":[32.443501,0.042386]}},{"id":309298,"ident":"ID-0017","type":"large_airport","name":"Aji Pangeran Tumenggung Pranoto International Airport","latitude_deg":-0.374448,"longitude_deg":117.249392,"elevation_ft":73.0,"continent":"AS","iso_country":"ID","iso_region":"ID-KI","municipality":"Samarinda","gps_code":"WALS","iata_code":"AAP","location":{"type":"Point","coordinates":[117.249392,-0.374448]}},{"id":331433,"ident":"JNB","type":"large_airport","name":"O R Tambo International","latitude_deg":-26.1392,"longitude_deg":28.246,"elevation_ft":5558.0,"continent":"AF","iso_country":"ZA","iso_region":"ZA-U-A","municipality":"Johannesburg","gps_code":"FAOR","iata_code":"JNB","location":{"type":"Point","coordinates":[28.246,-26.1392]}},{"id":16091,"ident":"KABQ","type":"large_airport","name":"Albuquerque International Sunport","latitude_deg":35.040199,"longitude_deg":-106.609001,"elevation_ft":5355.0,"continent":null,"iso_country":"US","iso_region":"US-NM","municipality":"Albuquerque","gps_code":"KABQ","iata_code":"ABQ","location":{"type":"Point","coordinates":[-106.609001,35.040199]}},{"id":3364,"ident":"KADW","type":"large_airport","name":"Joint Base Andrews","latitude_deg":38.810799,"longitude_deg":-76.866997,"elevation_ft":280.0,"continent":null,"iso_country":"US","iso_region":"US-MD","municipality":"Camp Springs","gps_code":"KADW","iata_code":"ADW","location":{"type":"Point","coordinates":[-76.866997,38.810799]}},{"id":3366,"ident":"KAFW","type":"large_airport","name":"Fort Worth Alliance Airport","latitude_deg":32.9875984192,"longitude_deg":-97.3188018799,"elevation_ft":722.0,"continent":null,"iso_country":"US","iso_region":"US-TX","municipality":"Fort Worth","gps_code":"KAFW","iata_code":"AFW","location":{"type":"Point","coordinates":[-97.3188018799,32.9875984192]}},{"id":3368,"ident":"KAGS","type":"large_airport","name":"Augusta Regional At Bush Field","latitude_deg":33.3698997498,"longitude_deg":-81.9645004272,"elevation_ft":144.0,"continent":null,"iso_country":"US","iso_region":"US-GA","municipality":"Augusta","gps_code":"KAGS","iata_code":"AGS","location":{"type":"Point","coordinates":[-81.9645004272,33.3698997498]}},{"id":3377,"ident":"KAMA","type":"large_airport","name":"Rick Husband Amarillo International Airport","latitude_deg":35.219398,"longitude_deg":-101.706001,"elevation_ft":3607.0,"continent":null,"iso_country":"US","iso_region":"US-TX","municipality":"Amarillo","gps_code":"KAMA","iata_code":"AMA","location":{"type":"Point","coordinates":[-101.706001,35.219398]}},{"id":3384,"ident":"KATL","type":"large_airport","name":"Hartsfield Jackson Atlanta International Airport","latitude_deg":33.6367,"longitude_deg":-84.428101,"elevation_ft":1026.0,"continent":null,"iso_country":"US","iso_region":"US-GA","municipality":"Atlanta","gps_code":"KATL","iata_code":"ATL","location":{"type":"Point","coordinates":[-84.428101,33.6367]}},{"id":3386,"ident":"KAUS","type":"large_airport","name":"Austin Bergstrom International Airport","latitude_deg":30.1944999695,"longitude_deg":-97.6698989868,"elevation_ft":542.0,"continent":null,"iso_country":"US","iso_region":"US-TX","municipality":"Austin","gps_code":"KAUS","iata_code":"AUS","location":{"type":"Point","coordinates":[-97.6698989868,30.1944999695]}},{"id":3387,"ident":"KAVL","type":"large_airport","name":"Asheville Regional Airport","latitude_deg":35.4361991882,"longitude_deg":-82.5418014526,"elevation_ft":2165.0,"continent":null,"iso_country":"US","iso_region":"US-NC","municipality":"Asheville","gps_code":"KAVL","iata_code":"AVL","location":{"type":"Point","coordinates":[-82.5418014526,35.4361991882]}},{"id":3391,"ident":"KBAB","type":"large_airport","name":"Beale Air Force Base","latitude_deg":39.136100769,"longitude_deg":-121.43699646,"elevation_ft":113.0,"continent":null,"iso_country":"US","iso_region":"US-CA","municipality":"Marysville","gps_code":"KBAB","iata_code":"BAB","location":{"type":"Point","coordinates":[-121.43699646,39.136100769]}},{"id":3392,"ident":"KBAD","type":"large_airport","name":"Barksdale Air Force Base","latitude_deg":32.5018005371,"longitude_deg":-93.6626968384,"elevation_ft":166.0,"continent":null,"iso_country":"US","iso_region":"US-LA","municipality":"Bossier City","gps_code":"KBAD","iata_code":"BAD","location":{"type":"Point","coordinates":[-93.6626968384,32.5018005371]}},{"id":3396,"ident":"KBDL","type":"large_airport","name":"Bradley International Airport","latitude_deg":41.9388999939,"longitude_deg":-72.6831970215,"elevation_ft":173.0,"continent":null,"iso_country":"US","iso_region":"US-CT","municipality":"Hartford","gps_code":"KBDL","iata_code":"BDL","location":{"type":"Point","coordinates":[-72.6831970215,41.9388999939]}},{"id":3401,"ident":"KBFI","type":"large_airport","name":"Boeing Field King County International Airport","latitude_deg":47.5299987793,"longitude_deg":-122.3020019531,"elevation_ft":21.0,"continent":null,"iso_country":"US","iso_region":"US-WA","municipality":"Seattle","gps_code":"KBFI","iata_code":"BFI","location":{"type":"Point","coordinates":[-122.3020019531,47.5299987793]}},{"id":3405,"ident":"KBGR","type":"large_airport","name":"Bangor International Airport","latitude_deg":44.8073997498,"longitude_deg":-68.8281021118,"elevation_ft":192.0,"continent":null,"iso_country":"US","iso_region":"US-ME","municipality":"Bangor","gps_code":"KBGR","iata_code":"BGR","location":{"type":"Point","coordinates":[-68.8281021118,44.8073997498]}},{"id":3406,"ident":"KBHM","type":"large_airport","name":"Birmingham-Shuttlesworth International Airport","latitude_deg":33.56290054,"longitude_deg":-86.75350189,"elevation_ft":650.0,"continent":null,"iso_country":"US","iso_region":"US-AL","municipality":"Birmingham","gps_code":"KBHM","iata_code":"BHM","location":{"type":"Point","coordinates":[-86.75350189,33.56290054]}},{"id":3408,"ident":"KBIL","type":"large_airport","name":"Billings Logan International Airport","latitude_deg":45.8077011108,"longitude_deg":-108.5429992676,"elevation_ft":3652.0,"continent":null,"iso_country":"US","iso_region":"US-MT","municipality":"Billings","gps_code":"KBIL","iata_code":"BIL","location":{"type":"Point","coordinates":[-108.5429992676,45.8077011108]}},{"id":3417,"ident":"KBLV","type":"large_airport","name":"Scott AFB\/Midamerica Airport","latitude_deg":38.5452,"longitude_deg":-89.835197,"elevation_ft":459.0,"continent":null,"iso_country":"US","iso_region":"US-IL","municipality":"Belleville","gps_code":"KBLV","iata_code":"BLV","location":{"type":"Point","coordinates":[-89.835197,38.5452]}},{"id":3419,"ident":"KBMI","type":"large_airport","name":"Central Illinois Regional Airport at Bloomington-Normal","latitude_deg":40.47710037,"longitude_deg":-88.91590118,"elevation_ft":871.0,"continent":null,"iso_country":"US","iso_region":"US-IL","municipality":"Bloomington\/Normal","gps_code":"KBMI","iata_code":"BMI","location":{"type":"Point","coordinates":[-88.91590118,40.47710037]}},{"id":3420,"ident":"KBNA","type":"large_airport","name":"Nashville International Airport","latitude_deg":36.1245002747,"longitude_deg":-86.6781997681,"elevation_ft":599.0,"continent":null,"iso_country":"US","iso_region":"US-TN","municipality":"Nashville","gps_code":"KBNA","iata_code":"BNA","location":{"type":"Point","coordinates":[-86.6781997681,36.1245002747]}},{"id":3421,"ident":"KBOI","type":"large_airport","name":"Boise Air Terminal\/Gowen Field","latitude_deg":43.5644,"longitude_deg":-116.223,"elevation_ft":2871.0,"continent":null,"iso_country":"US","iso_region":"US-ID","municipality":"Boise","gps_code":"KBOI","iata_code":"BOI","location":{"type":"Point","coordinates":[-116.223,43.5644]}},{"id":3422,"ident":"KBOS","type":"large_airport","name":"General Edward Lawrence Logan International Airport","latitude_deg":42.36429977,"longitude_deg":-71.00520325,"elevation_ft":20.0,"continent":null,"iso_country":"US","iso_region":"US-MA","municipality":"Boston","gps_code":"KBOS","iata_code":"BOS","location":{"type":"Point","coordinates":[-71.00520325,42.36429977]}},{"id":3431,"ident":"KBUF","type":"large_airport","name":"Buffalo Niagara International Airport","latitude_deg":42.94049835,"longitude_deg":-78.73220062,"elevation_ft":728.0,"continent":null,"iso_country":"US","iso_region":"US-NY","municipality":"Buffalo","gps_code":"KBUF","iata_code":"BUF","location":{"type":"Point","coordinates":[-78.73220062,42.94049835]}},{"id":3435,"ident":"KBWI","type":"large_airport","name":"Baltimore\/Washington International Thurgood Marshall Airport","latitude_deg":39.1754,"longitude_deg":-76.668297,"elevation_ft":146.0,"continent":null,"iso_country":"US","iso_region":"US-MD","municipality":"Baltimore","gps_code":"KBWI","iata_code":"BWI","location":{"type":"Point","coordinates":[-76.668297,39.1754]}},{"id":3438,"ident":"KCAE","type":"large_airport","name":"Columbia Metropolitan Airport","latitude_deg":33.9388008118,"longitude_deg":-81.1194992065,"elevation_ft":236.0,"continent":null,"iso_country":"US","iso_region":"US-SC","municipality":"Columbia","gps_code":"KCAE","iata_code":"CAE","location":{"type":"Point","coordinates":[-81.1194992065,33.9388008118]}},{"id":3441,"ident":"KCBM","type":"large_airport","name":"Columbus Air Force Base","latitude_deg":33.6437988281,"longitude_deg":-88.4438018799,"elevation_ft":219.0,"continent":null,"iso_country":"US","iso_region":"US-MS","municipality":"Columbus","gps_code":"KCBM","iata_code":"CBM","location":{"type":"Point","coordinates":[-88.4438018799,33.6437988281]}},{"id":3448,"ident":"KCHA","type":"large_airport","name":"Lovell Field","latitude_deg":35.0353012085,"longitude_deg":-85.2037963867,"elevation_ft":683.0,"continent":null,"iso_country":"US","iso_region":"US-TN","municipality":"Chattanooga","gps_code":"KCHA","iata_code":"CHA","location":{"type":"Point","coordinates":[-85.2037963867,35.0353012085]}},{"id":3450,"ident":"KCHS","type":"large_airport","name":"Charleston Air Force Base-International Airport","latitude_deg":32.89860153,"longitude_deg":-80.04049683,"elevation_ft":46.0,"continent":null,"iso_country":"US","iso_region":"US-SC","municipality":"Charleston","gps_code":"KCHS","iata_code":"CHS","location":{"type":"Point","coordinates":[-80.04049683,32.89860153]}},{"id":3451,"ident":"KCID","type":"large_airport","name":"The Eastern Iowa Airport","latitude_deg":41.8847007751,"longitude_deg":-91.7108001709,"elevation_ft":869.0,"continent":null,"iso_country":"US","iso_region":"US-IA","municipality":"Cedar Rapids","gps_code":"KCID","iata_code":"CID","location":{"type":"Point","coordinates":[-91.7108001709,41.8847007751]}},{"id":3454,"ident":"KCLE","type":"large_airport","name":"Cleveland Hopkins International Airport","latitude_deg":41.4117012024,"longitude_deg":-81.8498001099,"elevation_ft":791.0,"continent":null,"iso_country":"US","iso_region":"US-OH","municipality":"Cleveland","gps_code":"KCLE","iata_code":"CLE","location":{"type":"Point","coordinates":[-81.8498001099,41.4117012024]}},{"id":3457,"ident":"KCLT","type":"large_airport","name":"Charlotte Douglas International Airport","latitude_deg":35.2140007019,"longitude_deg":-80.9430999756,"elevation_ft":748.0,"continent":null,"iso_country":"US","iso_region":"US-NC","municipality":"Charlotte","gps_code":"KCLT","iata_code":"CLT","location":{"type":"Point","coordinates":[-80.9430999756,35.2140007019]}},{"id":3458,"ident":"KCMH","type":"large_airport","name":"John Glenn Columbus International Airport","latitude_deg":39.998001,"longitude_deg":-82.891899,"elevation_ft":815.0,"continent":null,"iso_country":"US","iso_region":"US-OH","municipality":"Columbus","gps_code":"KCMH","iata_code":"CMH","location":{"type":"Point","coordinates":[-82.891899,39.998001]}},{"id":3463,"ident":"KCOS","type":"large_airport","name":"City of Colorado Springs Municipal Airport","latitude_deg":38.805801,"longitude_deg":-104.700996,"elevation_ft":6187.0,"continent":null,"iso_country":"US","iso_region":"US-CO","municipality":"Colorado Springs","gps_code":"KCOS","iata_code":"COS","location":{"type":"Point","coordinates":[-104.700996,38.805801]}},{"id":3466,"ident":"KCRP","type":"large_airport","name":"Corpus Christi International Airport","latitude_deg":27.7703990936,"longitude_deg":-97.5011978149,"elevation_ft":44.0,"continent":null,"iso_country":"US","iso_region":"US-TX","municipality":"Corpus Christi","gps_code":"KCRP","iata_code":"CRP","location":{"type":"Point","coordinates":[-97.5011978149,27.7703990936]}},{"id":3467,"ident":"KCRW","type":"large_airport","name":"Yeager Airport","latitude_deg":38.3731002808,"longitude_deg":-81.5932006836,"elevation_ft":981.0,"continent":null,"iso_country":"US","iso_region":"US-WV","municipality":"Charleston","gps_code":"KCRW","iata_code":"CRW","location":{"type":"Point","coordinates":[-81.5932006836,38.3731002808]}},{"id":3471,"ident":"KCVG","type":"large_airport","name":"Cincinnati Northern Kentucky International Airport","latitude_deg":39.0488014221,"longitude_deg":-84.6678009033,"elevation_ft":896.0,"continent":null,"iso_country":"US","iso_region":"US-KY","municipality":"Cincinnati","gps_code":"KCVG","iata_code":"CVG","location":{"type":"Point","coordinates":[-84.6678009033,39.0488014221]}},{"id":3473,"ident":"KCVS","type":"large_airport","name":"Cannon Air Force Base","latitude_deg":34.3828010559,"longitude_deg":-103.321998596,"elevation_ft":4295.0,"continent":null,"iso_country":"US","iso_region":"US-NM","municipality":"Clovis","gps_code":"KCVS","iata_code":"CVS","location":{"type":"Point","coordinates":[-103.321998596,34.3828010559]}},{"id":3478,"ident":"KDAB","type":"large_airport","name":"Daytona Beach International Airport","latitude_deg":29.179899,"longitude_deg":-81.058098,"elevation_ft":34.0,"continent":null,"iso_country":"US","iso_region":"US-FL","municipality":"Daytona Beach","gps_code":"KDAB","iata_code":"DAB","location":{"type":"Point","coordinates":[-81.058098,29.179899]}},{"id":3479,"ident":"KDAL","type":"large_airport","name":"Dallas Love Field","latitude_deg":32.847099,"longitude_deg":-96.851799,"elevation_ft":487.0,"continent":null,"iso_country":"US","iso_region":"US-TX","municipality":"Dallas","gps_code":"KDAL","iata_code":"DAL","location":{"type":"Point","coordinates":[-96.851799,32.847099]}},{"id":3481,"ident":"KDAY","type":"large_airport","name":"James M Cox Dayton International Airport","latitude_deg":39.9024009705,"longitude_deg":-84.2193984985,"elevation_ft":1009.0,"continent":null,"iso_country":"US","iso_region":"US-OH","municipality":"Dayton","gps_code":"KDAY","iata_code":"DAY","location":{"type":"Point","coordinates":[-84.2193984985,39.9024009705]}},{"id":3482,"ident":"KDBQ","type":"large_airport","name":"Dubuque Regional Airport","latitude_deg":42.40200043,"longitude_deg":-90.70950317,"elevation_ft":1077.0,"continent":null,"iso_country":"US","iso_region":"US-IA","municipality":"Dubuque","gps_code":"KDBQ","iata_code":"DBQ","location":{"type":"Point","coordinates":[-90.70950317,42.40200043]}},{"id":3483,"ident":"KDCA","type":"large_airport","name":"Ronald Reagan Washington National Airport","latitude_deg":38.8521,"longitude_deg":-77.037697,"elevation_ft":15.0,"continent":null,"iso_country":"US","iso_region":"US-DC","municipality":"Washington","gps_code":"KDCA","iata_code":"DCA","location":{"type":"Point","coordinates":[-77.037697,38.8521]}},{"id":3486,"ident":"KDEN","type":"large_airport","name":"Denver International Airport","latitude_deg":39.8616981506,"longitude_deg":-104.672996521,"elevation_ft":5431.0,"continent":null,"iso_country":"US","iso_region":"US-CO","municipality":"Denver","gps_code":"KDEN","iata_code":"DEN","location":{"type":"Point","coordinates":[-104.672996521,39.8616981506]}},{"id":3488,"ident":"KDFW","type":"large_airport","name":"Dallas Fort Worth International Airport","latitude_deg":32.896801,"longitude_deg":-97.038002,"elevation_ft":607.0,"continent":null,"iso_country":"US","iso_region":"US-TX","municipality":"Dallas-Fort Worth","gps_code":"KDFW","iata_code":"DFW","location":{"type":"Point","coordinates":[-97.038002,32.896801]}},{"id":3490,"ident":"KDLF","type":"large_airport","name":"DLF Airport","latitude_deg":29.359501,"longitude_deg":-100.778002,"elevation_ft":1082.0,"continent":null,"iso_country":"US","iso_region":"US-TX","municipality":"Del Rio","gps_code":"KDLF","iata_code":"DLF","location":{"type":"Point","coordinates":[-100.778002,29.359501]}},{"id":3491,"ident":"KDLH","type":"large_airport","name":"Duluth International Airport","latitude_deg":46.8420982361,"longitude_deg":-92.1936035156,"elevation_ft":1428.0,"continent":null,"iso_country":"US","iso_region":"US-MN","municipality":"Duluth","gps_code":"KDLH","iata_code":"DLH","location":{"type":"Point","coordinates":[-92.1936035156,46.8420982361]}},{"id":3494,"ident":"KDOV","type":"large_airport","name":"Dover Air Force Base","latitude_deg":39.12950134,"longitude_deg":-75.46600342,"elevation_ft":24.0,"continent":null,"iso_country":"US","iso_region":"US-DE","municipality":"Dover","gps_code":"KDOV","iata_code":"DOV","location":{"type":"Point","coordinates":[-75.46600342,39.12950134]}},{"id":3496,"ident":"KDSM","type":"large_airport","name":"Des Moines International Airport","latitude_deg":41.5340003967,"longitude_deg":-93.6631011963,"elevation_ft":958.0,"continent":null,"iso_country":"US","iso_region":"US-IA","municipality":"Des Moines","gps_code":"KDSM","iata_code":"DSM","location":{"type":"Point","coordinates":[-93.6631011963,41.5340003967]}},{"id":3497,"ident":"KDTW","type":"large_airport","name":"Detroit Metropolitan Wayne County Airport","latitude_deg":42.2123985291,"longitude_deg":-83.3534011841,"elevation_ft":645.0,"continent":null,"iso_country":"US","iso_region":"US-MI","municipality":"Detroit","gps_code":"KDTW","iata_code":"DTW","location":{"type":"Point","coordinates":[-83.3534011841,42.2123985291]}},{"id":3499,"ident":"KDYS","type":"large_airport","name":"Dyess Air Force Base","latitude_deg":32.4207992554,"longitude_deg":-99.854598999,"elevation_ft":1789.0,"continent":null,"iso_country":"US","iso_region":"US-TX","municipality":"Abilene","gps_code":"KDYS","iata_code":"DYS","location":{"type":"Point","coordinates":[-99.854598999,32.4207992554]}},{"id":3503,"ident":"KEDW","type":"large_airport","name":"Edwards Air Force Base","latitude_deg":34.905399,"longitude_deg":-117.884003,"elevation_ft":2312.0,"continent":null,"iso_country":"US","iso_region":"US-CA","municipality":"Edwards","gps_code":"KEDW","iata_code":"EDW","location":{"type":"Point","coordinates":[-117.884003,34.905399]}},{"id":3513,"ident":"KEND","type":"large_airport","name":"Vance Air Force Base","latitude_deg":36.3391990662,"longitude_deg":-97.9164962769,"elevation_ft":1307.0,"continent":null,"iso_country":"US","iso_region":"US-OK","municipality":"Enid","gps_code":"KEND","iata_code":"END","location":{"type":"Point","coordinates":[-97.9164962769,36.3391990662]}},{"id":3515,"ident":"KERI","type":"large_airport","name":"Erie International Tom Ridge Field","latitude_deg":42.0831270134,"longitude_deg":-80.1738667488,"elevation_ft":732.0,"continent":null,"iso_country":"US","iso_region":"US-PA","municipality":"Erie","gps_code":"KERI","iata_code":"ERI","location":{"type":"Point","coordinates":[-80.1738667488,42.0831270134]}},{"id":3521,"ident":"KEWR","type":"large_airport","name":"Newark Liberty International Airport","latitude_deg":40.6925010681,"longitude_deg":-74.1687011719,"elevation_ft":18.0,"continent":null,"iso_country":"US","iso_region":"US-NJ","municipality":"Newark","gps_code":"KEWR","iata_code":"EWR","location":{"type":"Point","coordinates":[-74.1687011719,40.6925010681]}},{"id":3528,"ident":"KFFO","type":"large_airport","name":"Wright-Patterson Air Force Base","latitude_deg":39.8260993958,"longitude_deg":-84.0483016968,"elevation_ft":823.0,"continent":null,"iso_country":"US","iso_region":"US-OH","municipality":"Dayton","gps_code":"KFFO","iata_code":"FFO","location":{"type":"Point","coordinates":[-84.0483016968,39.8260993958]}},{"id":3531,"ident":"KFLL","type":"large_airport","name":"Fort Lauderdale Hollywood International Airport","latitude_deg":26.072599,"longitude_deg":-80.152702,"elevation_ft":9.0,"continent":null,"iso_country":"US","iso_region":"US-FL","municipality":"Fort Lauderdale","gps_code":"KFLL","iata_code":"FLL","location":{"type":"Point","coordinates":[-80.152702,26.072599]}},{"id":3543,"ident":"KFSM","type":"large_airport","name":"Fort Smith Regional Airport","latitude_deg":35.3366012573,"longitude_deg":-94.367401123,"elevation_ft":469.0,"continent":null,"iso_country":"US","iso_region":"US-AR","municipality":"Fort Smith","gps_code":"KFSM","iata_code":"FSM","location":{"type":"Point","coordinates":[-94.367401123,35.3366012573]}},{"id":3545,"ident":"KFTW","type":"large_airport","name":"Fort Worth Meacham International Airport","latitude_deg":32.819801,"longitude_deg":-97.362396,"elevation_ft":710.0,"continent":null,"iso_country":"US","iso_region":"US-TX","municipality":"Fort Worth","gps_code":"KFTW","iata_code":"FTW","location":{"type":"Point","coordinates":[-97.362396,32.819801]}},{"id":3547,"ident":"KFWA","type":"large_airport","name":"Fort Wayne International Airport","latitude_deg":40.97850037,"longitude_deg":-85.19509888,"elevation_ft":814.0,"continent":null,"iso_country":"US","iso_region":"US-IN","municipality":"Fort Wayne","gps_code":"KFWA","iata_code":"FWA","location":{"type":"Point","coordinates":[-85.19509888,40.97850037]}},{"id":3552,"ident":"KGEG","type":"large_airport","name":"Spokane International Airport","latitude_deg":47.6198997498,"longitude_deg":-117.533996582,"elevation_ft":2376.0,"continent":null,"iso_country":"US","iso_region":"US-WA","municipality":"Spokane","gps_code":"KGEG","iata_code":"GEG","location":{"type":"Point","coordinates":[-117.533996582,47.6198997498]}},{"id":3561,"ident":"KGPT","type":"large_airport","name":"Gulfport Biloxi International Airport","latitude_deg":30.4073009491,"longitude_deg":-89.070098877,"elevation_ft":28.0,"continent":null,"iso_country":"US","iso_region":"US-MS","municipality":"Gulfport","gps_code":"KGPT","iata_code":"GPT","location":{"type":"Point","coordinates":[-89.070098877,30.4073009491]}},{"id":3562,"ident":"KGRB","type":"large_airport","name":"Austin Straubel International Airport","latitude_deg":44.4850997925,"longitude_deg":-88.1296005249,"elevation_ft":695.0,"continent":null,"iso_country":"US","iso_region":"US-WI","municipality":"Green Bay","gps_code":"KGRB","iata_code":"GRB","location":{"type":"Point","coordinates":[-88.1296005249,44.4850997925]}},{"id":3567,"ident":"KGSB","type":"large_airport","name":"Seymour Johnson Air Force Base","latitude_deg":35.33940125,"longitude_deg":-77.96060181,"elevation_ft":109.0,"continent":null,"iso_country":"US","iso_region":"US-NC","municipality":"Goldsboro","gps_code":"KGSB","iata_code":"GSB","location":{"type":"Point","coordinates":[-77.96060181,35.33940125]}},{"id":3568,"ident":"KGSO","type":"large_airport","name":"Piedmont Triad International Airport","latitude_deg":36.0978012085,"longitude_deg":-79.9373016357,"elevation_ft":925.0,"continent":null,"iso_country":"US","iso_region":"US-NC","municipality":"Greensboro","gps_code":"KGSO","iata_code":"GSO","location":{"type":"Point","coordinates":[-79.9373016357,36.0978012085]}},{"id":3569,"ident":"KGSP","type":"large_airport","name":"Greenville Spartanburg International Airport","latitude_deg":34.8956985474,"longitude_deg":-82.2189025879,"elevation_ft":964.0,"continent":null,"iso_country":"US","iso_region":"US-SC","municipality":"Greenville","gps_code":"KGSP","iata_code":"GSP","location":{"type":"Point","coordinates":[-82.2189025879,34.8956985474]}},{"id":3573,"ident":"KGUS","type":"large_airport","name":"Grissom Air Reserve Base","latitude_deg":40.6481018066,"longitude_deg":-86.1520996094,"elevation_ft":812.0,"continent":null,"iso_country":"US","iso_region":"US-IN","municipality":"Peru","gps_code":"KGUS","iata_code":"GUS","location":{"type":"Point","coordinates":[-86.1520996094,40.6481018066]}},{"id":3579,"ident":"KHIB","type":"large_airport","name":"Range Regional Airport","latitude_deg":47.38660049,"longitude_deg":-92.83899689,"elevation_ft":1354.0,"continent":null,"iso_country":"US","iso_region":"US-MN","municipality":"Hibbing","gps_code":"KHIB","iata_code":"HIB","location":{"type":"Point","coordinates":[-92.83899689,47.38660049]}},{"id":3584,"ident":"KHMN","type":"large_airport","name":"Holloman Air Force Base","latitude_deg":32.8525009155,"longitude_deg":-106.107002258,"elevation_ft":4093.0,"continent":null,"iso_country":"US","iso_region":"US-NM","municipality":"Alamogordo","gps_code":"KHMN","iata_code":"HMN","location":{"type":"Point","coordinates":[-106.107002258,32.8525009155]}},{"id":3588,"ident":"KHOU","type":"large_airport","name":"William P Hobby Airport","latitude_deg":29.64539909,"longitude_deg":-95.27890015,"elevation_ft":46.0,"continent":null,"iso_country":"US","iso_region":"US-TX","municipality":"Houston","gps_code":"KHOU","iata_code":"HOU","location":{"type":"Point","coordinates":[-95.27890015,29.64539909]}},{"id":3594,"ident":"KHSV","type":"large_airport","name":"Huntsville International Carl T Jones Field","latitude_deg":34.6371994019,"longitude_deg":-86.775100708,"elevation_ft":629.0,"continent":null,"iso_country":"US","iso_region":"US-AL","municipality":"Huntsville","gps_code":"KHSV","iata_code":"HSV","location":{"type":"Point","coordinates":[-86.775100708,34.6371994019]}},{"id":3595,"ident":"KHTS","type":"large_airport","name":"Tri-State\/Milton J. Ferguson Field","latitude_deg":38.36669922,"longitude_deg":-82.55799866,"elevation_ft":828.0,"continent":null,"iso_country":"US","iso_region":"US-WV","municipality":"Huntington","gps_code":"KHTS","iata_code":"HTS","location":{"type":"Point","coordinates":[-82.55799866,38.36669922]}},{"id":3602,"ident":"KIAD","type":"large_airport","name":"Washington Dulles International Airport","latitude_deg":38.94449997,"longitude_deg":-77.45580292,"elevation_ft":312.0,"continent":null,"iso_country":"US","iso_region":"US-DC","municipality":"Washington","gps_code":"KIAD","iata_code":"IAD","location":{"type":"Point","coordinates":[-77.45580292,38.94449997]}},{"id":3604,"ident":"KIAH","type":"large_airport","name":"George Bush Intercontinental Houston Airport","latitude_deg":29.9843997955,"longitude_deg":-95.3414001465,"elevation_ft":97.0,"continent":null,"iso_country":"US","iso_region":"US-TX","municipality":"Houston","gps_code":"KIAH","iata_code":"IAH","location":{"type":"Point","coordinates":[-95.3414001465,29.9843997955]}},{"id":3605,"ident":"KICT","type":"large_airport","name":"Wichita Eisenhower National Airport","latitude_deg":37.649899,"longitude_deg":-97.433098,"elevation_ft":1333.0,"continent":null,"iso_country":"US","iso_region":"US-KS","municipality":"Wichita","gps_code":"KICT","iata_code":"ICT","location":{"type":"Point","coordinates":[-97.433098,37.649899]}},{"id":3610,"ident":"KIND","type":"large_airport","name":"Indianapolis International Airport","latitude_deg":39.7173,"longitude_deg":-86.294403,"elevation_ft":797.0,"continent":null,"iso_country":"US","iso_region":"US-IN","municipality":"Indianapolis","gps_code":"KIND","iata_code":"IND","location":{"type":"Point","coordinates":[-86.294403,39.7173]}},{"id":3619,"ident":"KJAN","type":"large_airport","name":"Jackson-Medgar Wiley Evers International Airport","latitude_deg":32.3111991882,"longitude_deg":-90.0758972168,"elevation_ft":346.0,"continent":null,"iso_country":"US","iso_region":"US-MS","municipality":"Jackson","gps_code":"KJAN","iata_code":"JAN","location":{"type":"Point","coordinates":[-90.0758972168,32.3111991882]}},{"id":3620,"ident":"KJAX","type":"large_airport","name":"Jacksonville International Airport","latitude_deg":30.4941005707,"longitude_deg":-81.6878967285,"elevation_ft":30.0,"continent":null,"iso_country":"US","iso_region":"US-FL","municipality":"Jacksonville","gps_code":"KJAX","iata_code":"JAX","location":{"type":"Point","coordinates":[-81.6878967285,30.4941005707]}},{"id":3622,"ident":"KJFK","type":"large_airport","name":"John F Kennedy International Airport","latitude_deg":40.63980103,"longitude_deg":-73.77890015,"elevation_ft":13.0,"continent":null,"iso_country":"US","iso_region":"US-NY","municipality":"New York","gps_code":"KJFK","iata_code":"JFK","location":{"type":"Point","coordinates":[-73.77890015,40.63980103]}},{"id":3623,"ident":"KJLN","type":"large_airport","name":"Joplin Regional Airport","latitude_deg":37.1517982483,"longitude_deg":-94.498298645,"elevation_ft":981.0,"continent":null,"iso_country":"US","iso_region":"US-MO","municipality":"Joplin","gps_code":"KJLN","iata_code":"JLN","location":{"type":"Point","coordinates":[-94.498298645,37.1517982483]}},{"id":3631,"ident":"KLAS","type":"large_airport","name":"McCarran International Airport","latitude_deg":36.08010101,"longitude_deg":-115.1520004,"elevation_ft":2181.0,"continent":null,"iso_country":"US","iso_region":"US-NV","municipality":"Las Vegas","gps_code":"KLAS","iata_code":"LAS","location":{"type":"Point","coordinates":[-115.1520004,36.08010101]}},{"id":3632,"ident":"KLAX","type":"large_airport","name":"Los Angeles International Airport","latitude_deg":33.94250107,"longitude_deg":-118.4079971,"elevation_ft":125.0,"continent":null,"iso_country":"US","iso_region":"US-CA","municipality":"Los Angeles","gps_code":"KLAX","iata_code":"LAX","location":{"type":"Point","coordinates":[-118.4079971,33.94250107]}},{"id":3633,"ident":"KLBB","type":"large_airport","name":"Lubbock Preston Smith International Airport","latitude_deg":33.663601,"longitude_deg":-101.822998,"elevation_ft":3282.0,"continent":null,"iso_country":"US","iso_region":"US-TX","municipality":"Lubbock","gps_code":"KLBB","iata_code":"LBB","location":{"type":"Point","coordinates":[-101.822998,33.663601]}},{"id":3638,"ident":"KLCK","type":"large_airport","name":"Rickenbacker International Airport","latitude_deg":39.813801,"longitude_deg":-82.927803,"elevation_ft":744.0,"continent":null,"iso_country":"US","iso_region":"US-OH","municipality":"Columbus","gps_code":"KLCK","iata_code":"LCK","location":{"type":"Point","coordinates":[-82.927803,39.813801]}},{"id":3640,"ident":"KLEX","type":"large_airport","name":"Blue Grass Airport","latitude_deg":38.0364990234,"longitude_deg":-84.6059036255,"elevation_ft":979.0,"continent":null,"iso_country":"US","iso_region":"US-KY","municipality":"Lexington","gps_code":"KLEX","iata_code":"LEX","location":{"type":"Point","coordinates":[-84.6059036255,38.0364990234]}},{"id":3641,"ident":"KLFI","type":"large_airport","name":"Langley Air Force Base","latitude_deg":37.082901001,"longitude_deg":-76.360496521,"elevation_ft":11.0,"continent":null,"iso_country":"US","iso_region":"US-VA","municipality":"Hampton","gps_code":"KLFI","iata_code":"LFI","location":{"type":"Point","coordinates":[-76.360496521,37.082901001]}},{"id":3642,"ident":"KLFT","type":"large_airport","name":"Lafayette Regional Airport","latitude_deg":30.20529938,"longitude_deg":-91.98760223,"elevation_ft":42.0,"continent":null,"iso_country":"US","iso_region":"US-LA","municipality":"Lafayette","gps_code":"KLFT","iata_code":"LFT","location":{"type":"Point","coordinates":[-91.98760223,30.20529938]}},{"id":3643,"ident":"KLGA","type":"large_airport","name":"La Guardia Airport","latitude_deg":40.77719879,"longitude_deg":-73.87259674,"elevation_ft":21.0,"continent":null,"iso_country":"US","iso_region":"US-NY","municipality":"New York","gps_code":"KLGA","iata_code":"LGA","location":{"type":"Point","coordinates":[-73.87259674,40.77719879]}},{"id":3645,"ident":"KLIT","type":"large_airport","name":"Bill & Hillary Clinton National Airport\/Adams Field","latitude_deg":34.7294006348,"longitude_deg":-92.2242965698,"elevation_ft":262.0,"continent":null,"iso_country":"US","iso_region":"US-AR","municipality":"Little Rock","gps_code":"KLIT","iata_code":"LIT","location":{"type":"Point","coordinates":[-92.2242965698,34.7294006348]}},{"id":3657,"ident":"KLTS","type":"large_airport","name":"Altus Air Force Base","latitude_deg":34.667098999,"longitude_deg":-99.2667007446,"elevation_ft":1382.0,"continent":null,"iso_country":"US","iso_region":"US-OK","municipality":"Altus","gps_code":"KLTS","iata_code":"LTS","location":{"type":"Point","coordinates":[-99.2667007446,34.667098999]}},{"id":3658,"ident":"KLUF","type":"large_airport","name":"Luke Air Force Base","latitude_deg":33.5349998474,"longitude_deg":-112.383003235,"elevation_ft":1085.0,"continent":null,"iso_country":"US","iso_region":"US-AZ","municipality":"Glendale","gps_code":"KLUF","iata_code":"LUF","location":{"type":"Point","coordinates":[-112.383003235,33.5349998474]}},{"id":3664,"ident":"KMBS","type":"large_airport","name":"MBS International Airport","latitude_deg":43.5329017639,"longitude_deg":-84.0795974731,"elevation_ft":668.0,"continent":null,"iso_country":"US","iso_region":"US-MI","municipality":"Saginaw","gps_code":"KMBS","iata_code":"MBS","location":{"type":"Point","coordinates":[-84.0795974731,43.5329017639]}},{"id":3667,"ident":"KMCF","type":"large_airport","name":"Mac Dill Air Force Base","latitude_deg":27.84930038,"longitude_deg":-82.52120209,"elevation_ft":14.0,"continent":null,"iso_country":"US","iso_region":"US-FL","municipality":"Tampa","gps_code":"KMCF","iata_code":"MCF","location":{"type":"Point","coordinates":[-82.52120209,27.84930038]}},{"id":3668,"ident":"KMCI","type":"large_airport","name":"Kansas City International Airport","latitude_deg":39.2976,"longitude_deg":-94.713898,"elevation_ft":1026.0,"continent":null,"iso_country":"US","iso_region":"US-MO","municipality":"Kansas City","gps_code":"KMCI","iata_code":"MCI","location":{"type":"Point","coordinates":[-94.713898,39.2976]}},{"id":3670,"ident":"KMCO","type":"large_airport","name":"Orlando International Airport","latitude_deg":28.4293994904,"longitude_deg":-81.3089981079,"elevation_ft":96.0,"continent":null,"iso_country":"US","iso_region":"US-FL","municipality":"Orlando","gps_code":"KMCO","iata_code":"MCO","location":{"type":"Point","coordinates":[-81.3089981079,28.4293994904]}},{"id":3673,"ident":"KMDW","type":"large_airport","name":"Chicago Midway International Airport","latitude_deg":41.785999,"longitude_deg":-87.752403,"elevation_ft":620.0,"continent":null,"iso_country":"US","iso_region":"US-IL","municipality":"Chicago","gps_code":"KMDW","iata_code":"MDW","location":{"type":"Point","coordinates":[-87.752403,41.785999]}},{"id":3675,"ident":"KMEM","type":"large_airport","name":"Memphis International Airport","latitude_deg":35.0424003601,"longitude_deg":-89.9766998291,"elevation_ft":341.0,"continent":null,"iso_country":"US","iso_region":"US-TN","municipality":"Memphis","gps_code":"KMEM","iata_code":"MEM","location":{"type":"Point","coordinates":[-89.9766998291,35.0424003601]}},{"id":3680,"ident":"KMGE","type":"large_airport","name":"Dobbins Air Reserve Base","latitude_deg":33.91540146,"longitude_deg":-84.51629639,"elevation_ft":1068.0,"continent":null,"iso_country":"US","iso_region":"US-GA","municipality":"Marietta","gps_code":"KMGE","iata_code":"MGE","location":{"type":"Point","coordinates":[-84.51629639,33.91540146]}},{"id":3681,"ident":"KMGM","type":"large_airport","name":"Montgomery Regional (Dannelly Field) Airport","latitude_deg":32.30059814,"longitude_deg":-86.39399719,"elevation_ft":221.0,"continent":null,"iso_country":"US","iso_region":"US-AL","municipality":"Montgomery","gps_code":"KMGM","iata_code":"MGM","location":{"type":"Point","coordinates":[-86.39399719,32.30059814]}},{"id":3684,"ident":"KMHT","type":"large_airport","name":"Manchester-Boston Regional Airport","latitude_deg":42.932598,"longitude_deg":-71.435699,"elevation_ft":266.0,"continent":null,"iso_country":"US","iso_region":"US-NH","municipality":"Manchester","gps_code":"KMHT","iata_code":"MHT","location":{"type":"Point","coordinates":[-71.435699,42.932598]}},{"id":3685,"ident":"KMIA","type":"large_airport","name":"Miami International Airport","latitude_deg":25.7931995392,"longitude_deg":-80.2906036377,"elevation_ft":8.0,"continent":null,"iso_country":"US","iso_region":"US-FL","municipality":"Miami","gps_code":"KMIA","iata_code":"MIA","location":{"type":"Point","coordinates":[-80.2906036377,25.7931995392]}},{"id":3690,"ident":"KMKE","type":"large_airport","name":"General Mitchell International Airport","latitude_deg":42.9472007751,"longitude_deg":-87.8965988159,"elevation_ft":723.0,"continent":null,"iso_country":"US","iso_region":"US-WI","municipality":"Milwaukee","gps_code":"KMKE","iata_code":"MKE","location":{"type":"Point","coordinates":[-87.8965988159,42.9472007751]}},{"id":3695,"ident":"KMLI","type":"large_airport","name":"Quad City International Airport","latitude_deg":41.4485015869,"longitude_deg":-90.5074996948,"elevation_ft":590.0,"continent":null,"iso_country":"US","iso_region":"US-IL","municipality":"Moline","gps_code":"KMLI","iata_code":"MLI","location":{"type":"Point","coordinates":[-90.5074996948,41.4485015869]}},{"id":3697,"ident":"KMLU","type":"large_airport","name":"Monroe Regional Airport","latitude_deg":32.5108985901,"longitude_deg":-92.0376968384,"elevation_ft":79.0,"continent":null,"iso_country":"US","iso_region":"US-LA","municipality":"Monroe","gps_code":"KMLU","iata_code":"MLU","location":{"type":"Point","coordinates":[-92.0376968384,32.5108985901]}},{"id":3700,"ident":"KMOB","type":"large_airport","name":"Mobile Regional Airport","latitude_deg":30.6912002563,"longitude_deg":-88.2427978516,"elevation_ft":219.0,"continent":null,"iso_country":"US","iso_region":"US-AL","municipality":"Mobile","gps_code":"KMOB","iata_code":"MOB","location":{"type":"Point","coordinates":[-88.2427978516,30.6912002563]}},{"id":3707,"ident":"KMSN","type":"large_airport","name":"Dane County Regional Truax Field","latitude_deg":43.1399002075,"longitude_deg":-89.3375015259,"elevation_ft":887.0,"continent":null,"iso_country":"US","iso_region":"US-WI","municipality":"Madison","gps_code":"KMSN","iata_code":"MSN","location":{"type":"Point","coordinates":[-89.3375015259,43.1399002075]}},{"id":3709,"ident":"KMSP","type":"large_airport","name":"Minneapolis-St Paul International\/Wold-Chamberlain Airport","latitude_deg":44.882,"longitude_deg":-93.221802,"elevation_ft":841.0,"continent":null,"iso_country":"US","iso_region":"US-MN","municipality":"Minneapolis","gps_code":"KMSP","iata_code":"MSP","location":{"type":"Point","coordinates":[-93.221802,44.882]}},{"id":3711,"ident":"KMSY","type":"large_airport","name":"Louis Armstrong New Orleans International Airport","latitude_deg":29.9934005737,"longitude_deg":-90.2580032349,"elevation_ft":4.0,"continent":null,"iso_country":"US","iso_region":"US-LA","municipality":"New Orleans","gps_code":"KMSY","iata_code":"MSY","location":{"type":"Point","coordinates":[-90.2580032349,29.9934005737]}},{"id":3715,"ident":"KMUO","type":"large_airport","name":"Mountain Home Air Force Base","latitude_deg":43.043598,"longitude_deg":-115.872002,"elevation_ft":2996.0,"continent":null,"iso_country":"US","iso_region":"US-ID","municipality":"Mountain Home","gps_code":"KMUO","iata_code":"MUO","location":{"type":"Point","coordinates":[-115.872002,43.043598]}},{"id":3744,"ident":"KOAK","type":"large_airport","name":"Metropolitan Oakland International Airport","latitude_deg":37.721298,"longitude_deg":-122.221001,"elevation_ft":9.0,"continent":null,"iso_country":"US","iso_region":"US-CA","municipality":"Oakland","gps_code":"KOAK","iata_code":"OAK","location":{"type":"Point","coordinates":[-122.221001,37.721298]}},{"id":3747,"ident":"KOKC","type":"large_airport","name":"Will Rogers World Airport","latitude_deg":35.3931007385,"longitude_deg":-97.6007003784,"elevation_ft":1295.0,"continent":null,"iso_country":"US","iso_region":"US-OK","municipality":"Oklahoma City","gps_code":"KOKC","iata_code":"OKC","location":{"type":"Point","coordinates":[-97.6007003784,35.3931007385]}},{"id":3751,"ident":"KOMA","type":"large_airport","name":"Eppley Airfield","latitude_deg":41.3032,"longitude_deg":-95.894096,"elevation_ft":984.0,"continent":null,"iso_country":"US","iso_region":"US-NE","municipality":"Omaha","gps_code":"KOMA","iata_code":"OMA","location":{"type":"Point","coordinates":[-95.894096,41.3032]}},{"id":3752,"ident":"KONT","type":"large_airport","name":"Ontario International Airport","latitude_deg":34.0559997559,"longitude_deg":-117.6009979248,"elevation_ft":944.0,"continent":null,"iso_country":"US","iso_region":"US-CA","municipality":"Ontario","gps_code":"KONT","iata_code":"ONT","location":{"type":"Point","coordinates":[-117.6009979248,34.0559997559]}},{"id":3754,"ident":"KORD","type":"large_airport","name":"Chicago O'Hare International Airport","latitude_deg":41.9786,"longitude_deg":-87.9048,"elevation_ft":672.0,"continent":null,"iso_country":"US","iso_region":"US-IL","municipality":"Chicago","gps_code":"KORD","iata_code":"ORD","location":{"type":"Point","coordinates":[-87.9048,41.9786]}},{"id":3755,"ident":"KORF","type":"large_airport","name":"Norfolk International Airport","latitude_deg":36.8945999146,"longitude_deg":-76.2012023926,"elevation_ft":26.0,"continent":null,"iso_country":"US","iso_region":"US-VA","municipality":"Norfolk","gps_code":"KORF","iata_code":"ORF","location":{"type":"Point","coordinates":[-76.2012023926,36.8945999146]}},{"id":3765,"ident":"KPAM","type":"large_airport","name":"Tyndall Air Force Base","latitude_deg":30.0695991516,"longitude_deg":-85.5754013062,"elevation_ft":17.0,"continent":null,"iso_country":"US","iso_region":"US-FL","municipality":"Panama City","gps_code":"KPAM","iata_code":"PAM","location":{"type":"Point","coordinates":[-85.5754013062,30.0695991516]}},{"id":3766,"ident":"KPBI","type":"large_airport","name":"Palm Beach International Airport","latitude_deg":26.6832008362,"longitude_deg":-80.0955963135,"elevation_ft":19.0,"continent":null,"iso_country":"US","iso_region":"US-FL","municipality":"West Palm Beach","gps_code":"KPBI","iata_code":"PBI","location":{"type":"Point","coordinates":[-80.0955963135,26.6832008362]}},{"id":3768,"ident":"KPDX","type":"large_airport","name":"Portland International Airport","latitude_deg":45.58869934,"longitude_deg":-122.5979996,"elevation_ft":31.0,"continent":null,"iso_country":"US","iso_region":"US-OR","municipality":"Portland","gps_code":"KPDX","iata_code":"PDX","location":{"type":"Point","coordinates":[-122.5979996,45.58869934]}},{"id":3770,"ident":"KPHF","type":"large_airport","name":"Newport News Williamsburg International Airport","latitude_deg":37.13190079,"longitude_deg":-76.49299622,"elevation_ft":42.0,"continent":null,"iso_country":"US","iso_region":"US-VA","municipality":"Newport News","gps_code":"KPHF","iata_code":"PHF","location":{"type":"Point","coordinates":[-76.49299622,37.13190079]}},{"id":3771,"ident":"KPHL","type":"large_airport","name":"Philadelphia International Airport","latitude_deg":39.8718986511,"longitude_deg":-75.2410964966,"elevation_ft":36.0,"continent":null,"iso_country":"US","iso_region":"US-PA","municipality":"Philadelphia","gps_code":"KPHL","iata_code":"PHL","location":{"type":"Point","coordinates":[-75.2410964966,39.8718986511]}},{"id":3772,"ident":"KPHX","type":"large_airport","name":"Phoenix Sky Harbor International Airport","latitude_deg":33.434299469,"longitude_deg":-112.0120010376,"elevation_ft":1135.0,"continent":null,"iso_country":"US","iso_region":"US-AZ","municipality":"Phoenix","gps_code":"KPHX","iata_code":"PHX","location":{"type":"Point","coordinates":[-112.0120010376,33.434299469]}},{"id":3773,"ident":"KPIA","type":"large_airport","name":"General Wayne A. Downing Peoria International Airport","latitude_deg":40.6641998291,"longitude_deg":-89.6932983398,"elevation_ft":660.0,"continent":null,"iso_country":"US","iso_region":"US-IL","municipality":"Peoria","gps_code":"KPIA","iata_code":"PIA","location":{"type":"Point","coordinates":[-89.6932983398,40.6641998291]}},{"id":3778,"ident":"KPIT","type":"large_airport","name":"Pittsburgh International Airport","latitude_deg":40.49150085,"longitude_deg":-80.23290253,"elevation_ft":1203.0,"continent":null,"iso_country":"US","iso_region":"US-PA","municipality":"Pittsburgh","gps_code":"KPIT","iata_code":"PIT","location":{"type":"Point","coordinates":[-80.23290253,40.49150085]}},{"id":3795,"ident":"KPVD","type":"large_airport","name":"Theodore Francis Green State Airport","latitude_deg":41.732601,"longitude_deg":-71.420403,"elevation_ft":55.0,"continent":null,"iso_country":"US","iso_region":"US-RI","municipality":"Providence","gps_code":"KPVD","iata_code":"PVD","location":{"type":"Point","coordinates":[-71.420403,41.732601]}},{"id":3796,"ident":"KPWM","type":"large_airport","name":"Portland International Jetport","latitude_deg":43.646198,"longitude_deg":-70.309303,"elevation_ft":76.0,"continent":null,"iso_country":"US","iso_region":"US-ME","municipality":"Portland","gps_code":"KPWM","iata_code":"PWM","location":{"type":"Point","coordinates":[-70.309303,43.646198]}},{"id":3844,"ident":"KRDU","type":"large_airport","name":"Raleigh Durham International Airport","latitude_deg":35.8776016235,"longitude_deg":-78.7874984741,"elevation_ft":435.0,"continent":null,"iso_country":"US","iso_region":"US-NC","municipality":"Raleigh\/Durham","gps_code":"KRDU","iata_code":"RDU","location":{"type":"Point","coordinates":[-78.7874984741,35.8776016235]}},{"id":3845,"ident":"KRFD","type":"large_airport","name":"Chicago Rockford International Airport","latitude_deg":42.195400238,"longitude_deg":-89.0971984863,"elevation_ft":742.0,"continent":null,"iso_country":"US","iso_region":"US-IL","municipality":"Chicago\/Rockford","gps_code":"KRFD","iata_code":"RFD","location":{"type":"Point","coordinates":[-89.0971984863,42.195400238]}},{"id":3847,"ident":"KRIC","type":"large_airport","name":"Richmond International Airport","latitude_deg":37.5051994324,"longitude_deg":-77.3197021484,"elevation_ft":167.0,"continent":null,"iso_country":"US","iso_region":"US-VA","municipality":"Richmond","gps_code":"KRIC","iata_code":"RIC","location":{"type":"Point","coordinates":[-77.3197021484,37.5051994324]}},{"id":3852,"ident":"KRND","type":"large_airport","name":"Randolph Air Force Base","latitude_deg":29.52969933,"longitude_deg":-98.27890015,"elevation_ft":761.0,"continent":null,"iso_country":"US","iso_region":"US-TX","municipality":"Universal City","gps_code":"KRND","iata_code":"RND","location":{"type":"Point","coordinates":[-98.27890015,29.52969933]}},{"id":3853,"ident":"KRNO","type":"large_airport","name":"Reno Tahoe International Airport","latitude_deg":39.4990997314,"longitude_deg":-119.7679977417,"elevation_ft":4415.0,"continent":null,"iso_country":"US","iso_region":"US-NV","municipality":"Reno","gps_code":"KRNO","iata_code":"RNO","location":{"type":"Point","coordinates":[-119.7679977417,39.4990997314]}},{"id":3854,"ident":"KROA","type":"large_airport","name":"Roanoke\u2013Blacksburg Regional Airport","latitude_deg":37.3255,"longitude_deg":-79.975403,"elevation_ft":1175.0,"continent":null,"iso_country":"US","iso_region":"US-VA","municipality":"Roanoke","gps_code":"KROA","iata_code":"ROA","location":{"type":"Point","coordinates":[-79.975403,37.3255]}},{"id":3855,"ident":"KROC","type":"large_airport","name":"Greater Rochester International Airport","latitude_deg":43.1189002991,"longitude_deg":-77.6724014282,"elevation_ft":559.0,"continent":null,"iso_country":"US","iso_region":"US-NY","municipality":"Rochester","gps_code":"KROC","iata_code":"ROC","location":{"type":"Point","coordinates":[-77.6724014282,43.1189002991]}},{"id":3857,"ident":"KRST","type":"large_airport","name":"Rochester International Airport","latitude_deg":43.9082984924,"longitude_deg":-92.5,"elevation_ft":1317.0,"continent":null,"iso_country":"US","iso_region":"US-MN","municipality":"Rochester","gps_code":"KRST","iata_code":"RST","location":{"type":"Point","coordinates":[-92.5,43.9082984924]}},{"id":3858,"ident":"KRSW","type":"large_airport","name":"Southwest Florida International Airport","latitude_deg":26.5361995697,"longitude_deg":-81.7552032471,"elevation_ft":30.0,"continent":null,"iso_country":"US","iso_region":"US-FL","municipality":"Fort Myers","gps_code":"KRSW","iata_code":"RSW","location":{"type":"Point","coordinates":[-81.7552032471,26.5361995697]}},{"id":3862,"ident":"KSAN","type":"large_airport","name":"San Diego International Airport","latitude_deg":32.7336006165,"longitude_deg":-117.190002441,"elevation_ft":17.0,"continent":null,"iso_country":"US","iso_region":"US-CA","municipality":"San Diego","gps_code":"KSAN","iata_code":"SAN","location":{"type":"Point","coordinates":[-117.190002441,32.7336006165]}},{"id":3863,"ident":"KSAT","type":"large_airport","name":"San Antonio International Airport","latitude_deg":29.533700943,"longitude_deg":-98.4698028564,"elevation_ft":809.0,"continent":null,"iso_country":"US","iso_region":"US-TX","municipality":"San Antonio","gps_code":"KSAT","iata_code":"SAT","location":{"type":"Point","coordinates":[-98.4698028564,29.533700943]}},{"id":3864,"ident":"KSAV","type":"large_airport","name":"Savannah Hilton Head International Airport","latitude_deg":32.12760162,"longitude_deg":-81.20210266,"elevation_ft":50.0,"continent":null,"iso_country":"US","iso_region":"US-GA","municipality":"Savannah","gps_code":"KSAV","iata_code":"SAV","location":{"type":"Point","coordinates":[-81.20210266,32.12760162]}},{"id":3868,"ident":"KSBN","type":"large_airport","name":"South Bend Regional Airport","latitude_deg":41.7086982727,"longitude_deg":-86.3172988892,"elevation_ft":799.0,"continent":null,"iso_country":"US","iso_region":"US-IN","municipality":"South Bend","gps_code":"KSBN","iata_code":"SBN","location":{"type":"Point","coordinates":[-86.3172988892,41.7086982727]}},{"id":3873,"ident":"KSDF","type":"large_airport","name":"Louisville Muhammad Ali International Airport","latitude_deg":38.1744,"longitude_deg":-85.736,"elevation_ft":501.0,"continent":null,"iso_country":"US","iso_region":"US-KY","municipality":"Louisville","gps_code":"KSDF","iata_code":"SDF","location":{"type":"Point","coordinates":[-85.736,38.1744]}},{"id":3875,"ident":"KSEA","type":"large_airport","name":"Seattle Tacoma International Airport","latitude_deg":47.449001,"longitude_deg":-122.308998,"elevation_ft":433.0,"continent":null,"iso_country":"US","iso_region":"US-WA","municipality":"Seattle","gps_code":"KSEA","iata_code":"SEA","location":{"type":"Point","coordinates":[-122.308998,47.449001]}},{"id":3876,"ident":"KSFB","type":"large_airport","name":"Orlando Sanford International Airport","latitude_deg":28.7775993347,"longitude_deg":-81.2375030518,"elevation_ft":55.0,"continent":null,"iso_country":"US","iso_region":"US-FL","municipality":"Orlando","gps_code":"KSFB","iata_code":"SFB","location":{"type":"Point","coordinates":[-81.2375030518,28.7775993347]}},{"id":3878,"ident":"KSFO","type":"large_airport","name":"San Francisco International Airport","latitude_deg":37.6189994812,"longitude_deg":-122.375,"elevation_ft":13.0,"continent":null,"iso_country":"US","iso_region":"US-CA","municipality":"San Francisco","gps_code":"KSFO","iata_code":"SFO","location":{"type":"Point","coordinates":[-122.375,37.6189994812]}},